[
  {
    "region": "North America",
    "country": "USA",
    "country_jp": "アメリカ合衆国",
    "countryCode": "US",
    "state": "California",
    "state_jp": "カリフォルニア州",
    "stateCode": "CA",
    "name": "Los Angeles",
    "name_jp": "ロサンゼルス",
    "lat": 34.0522,
    "lon": -118.2437,
    "id": "US-CA-LosAngeles"
  },
  {
    "region": "North America",
    "country": "USA",
    "country_jp": "アメリカ合衆国",
    "countryCode": "US",
    "state": "California",
    "state_jp": "カリフォルニア州",
    "stateCode": "CA",
    "name": "San Diego",
    "name_jp": "サンディエゴ",
    "lat": 32.7157,
    "lon": -117.1611,
    "id": "US-CA-SanDiego"
  },
  {
    "region": "North America",
    "country": "USA",
    "country_jp": "アメリカ合衆国",
    "countryCode": "US",
    "state": "California",
    "state_jp": "カリフォルニア州",
    "stateCode": "CA",
    "name": "San Francisco",
    "name_jp": "サンフランシスコ",
    "lat": 37.7749,
    "lon": -122.4194,
    "id": "US-CA-SanFrancisco"
  },
  {
    "region": "North America",
    "country": "USA",
    "country_jp": "アメリカ合衆国",
    "countryCode": "US",
    "state": "California",
    "state_jp": "カリフォルニア州",
    "stateCode": "CA",
    "name": "Sacramento",
    "name_jp": "サクラメント",
    "lat": 38.5816,
    "lon": -121.4944,
    "id": "US-CA-Sacramento"
  },
  {
    "region": "North America",
    "country": "USA",
    "country_jp": "アメリカ合衆国",
    "countryCode": "US",
    "state": "California",
    "state_jp": "カリフォルニア州",
    "stateCode": "CA",
    "name": "Fresno",
    "name_jp": "フレズノ",
    "lat": 36.7378,
    "lon": -119.7871,
    "id": "US-CA-Fresno"
  },
  {
    "region": "North America",
    "country": "USA",
    "country_jp": "アメリカ合衆国",
    "countryCode": "US",
    "state": "California",
    "state_jp": "カリフォルニア州",
    "stateCode": "CA",
    "name": "Bakersfield",
    "name_jp": "ベーカーズフィールド",
    "lat": 35.3733,
    "lon": -119.0187,
    "id": "US-CA-Bakersfield"
  },
  {
    "region": "North America",
    "country": "USA",
    "country_jp": "アメリカ合衆国",
    "countryCode": "US",
    "state": "California",
    "state_jp": "カリフォルニア州",
    "stateCode": "CA",
    "name": "Redding",
    "name_jp": "レディング",
    "lat": 40.5865,
    "lon": -122.3917,
    "id": "US-CA-Redding"
  },
  {
    "region": "North America",
    "country": "USA",
    "country_jp": "アメリカ合衆国",
    "countryCode": "US",
    "state": "California",
    "state_jp": "カリフォルニア州",
    "stateCode": "CA",
    "name": "Eureka",
    "name_jp": "ユーレカ",
    "lat": 40.8021,
    "lon": -124.1637,
    "id": "US-CA-Eureka"
  },
  {
    "region": "North America",
    "country": "USA",
    "country_jp": "アメリカ合衆国",
    "countryCode": "US",
    "state": "Arizona",
    "state_jp": "アリゾナ州",
    "stateCode": "AZ",
    "name": "Phoenix",
    "name_jp": "フェニックス",
    "lat": 33.4484,
    "lon": -112.074,
    "id": "US-AZ-Phoenix"
  },
  {
    "region": "North America",
    "country": "USA",
    "country_jp": "アメリカ合衆国",
    "countryCode": "US",
    "state": "Arizona",
    "state_jp": "アリゾナ州",
    "stateCode": "AZ",
    "name": "Tucson",
    "name_jp": "ツーソン",
    "lat": 32.2226,
    "lon": -110.9747,
    "id": "US-AZ-Tucson"
  },
  {
    "region": "North America",
    "country": "USA",
    "country_jp": "アメリカ合衆国",
    "countryCode": "US",
    "state": "Arizona",
    "state_jp": "アリゾナ州",
    "stateCode": "AZ",
    "name": "Flagstaff",
    "name_jp": "フラッグスタッフ",
    "lat": 35.1983,
    "lon": -111.6513,
    "id": "US-AZ-Flagstaff"
  },
  {
    "region": "North America",
    "country": "USA",
    "country_jp": "アメリカ合衆国",
    "countryCode": "US",
    "state": "Arizona",
    "state_jp": "アリゾナ州",
    "stateCode": "AZ",
    "name": "Yuma",
    "name_jp": "ユマ",
    "lat": 32.6927,
    "lon": -114.6277,
    "id": "US-AZ-Yuma"
  },
  {
    "region": "North America",
    "country": "USA",
    "country_jp": "アメリカ合衆国",
    "countryCode": "US",
    "state": "Arizona",
    "state_jp": "アリゾナ州",
    "stateCode": "AZ",
    "name": "Kingman",
    "name_jp": "キングマン",
    "lat": 35.1894,
    "lon": -114.053,
    "id": "US-AZ-Kingman"
  },
  {
    "region": "North America",
    "country": "USA",
    "country_jp": "アメリカ合衆国",
    "countryCode": "US",
    "state": "Nevada",
    "state_jp": "ネバダ州",
    "stateCode": "NV",
    "name": "Las Vegas",
    "name_jp": "ラスベガス",
    "lat": 36.1699,
    "lon": -115.1398,
    "id": "US-NV-LasVegas"
  },
  {
    "region": "North America",
    "country": "USA",
    "country_jp": "アメリカ合衆国",
    "countryCode": "US",
    "state": "Nevada",
    "state_jp": "ネバダ州",
    "stateCode": "NV",
    "name": "Reno",
    "name_jp": "リノ",
    "lat": 39.5296,
    "lon": -119.8138,
    "id": "US-NV-Reno"
  },
  {
    "region": "North America",
    "country": "USA",
    "country_jp": "アメリカ合衆国",
    "countryCode": "US",
    "state": "Nevada",
    "state_jp": "ネバダ州",
    "stateCode": "NV",
    "name": "Elko",
    "name_jp": "エルコ",
    "lat": 40.8324,
    "lon": -115.7631,
    "id": "US-NV-Elko"
  },
  {
    "region": "North America",
    "country": "USA",
    "country_jp": "アメリカ合衆国",
    "countryCode": "US",
    "state": "Nevada",
    "state_jp": "ネバダ州",
    "stateCode": "NV",
    "name": "Ely",
    "name_jp": "イーリー",
    "lat": 39.2474,
    "lon": -114.8886,
    "id": "US-NV-Ely"
  },
  {
    "region": "North America",
    "country": "USA",
    "country_jp": "アメリカ合衆国",
    "countryCode": "US",
    "state": "Nevada",
    "state_jp": "ネバダ州",
    "stateCode": "NV",
    "name": "Winnemucca",
    "name_jp": "ウィネマッカ",
    "lat": 40.9729,
    "lon": -117.7357,
    "id": "US-NV-Winnemucca"
  },
  {
    "region": "North America",
    "country": "USA",
    "country_jp": "アメリカ合衆国",
    "countryCode": "US",
    "state": "New Mexico",
    "state_jp": "ニューメキシコ州",
    "stateCode": "NM",
    "name": "Albuquerque",
    "name_jp": "アルバカーキ",
    "lat": 35.0844,
    "lon": -106.6504,
    "id": "US-NM-Albuquerque"
  },
  {
    "region": "North America",
    "country": "USA",
    "country_jp": "アメリカ合衆国",
    "countryCode": "US",
    "state": "New Mexico",
    "state_jp": "ニューメキシコ州",
    "stateCode": "NM",
    "name": "Santa Fe",
    "name_jp": "サンタフェ",
    "lat": 35.687,
    "lon": -105.9378,
    "id": "US-NM-SantaFe"
  },
  {
    "region": "North America",
    "country": "USA",
    "country_jp": "アメリカ合衆国",
    "countryCode": "US",
    "state": "New Mexico",
    "state_jp": "ニューメキシコ州",
    "stateCode": "NM",
    "name": "Roswell",
    "name_jp": "ロズウェル",
    "lat": 33.3943,
    "lon": -104.523,
    "id": "US-NM-Roswell"
  },
  {
    "region": "North America",
    "country": "USA",
    "country_jp": "アメリカ合衆国",
    "countryCode": "US",
    "state": "New Mexico",
    "state_jp": "ニューメキシコ州",
    "stateCode": "NM",
    "name": "Farmington",
    "name_jp": "ファーミントン",
    "lat": 36.7281,
    "lon": -108.2187,
    "id": "US-NM-Farmington"
  },
  {
    "region": "North America",
    "country": "USA",
    "country_jp": "アメリカ合衆国",
    "countryCode": "US",
    "state": "New Mexico",
    "state_jp": "ニューメキシコ州",
    "stateCode": "NM",
    "name": "Las Cruces",
    "name_jp": "ラスクルーセス",
    "lat": 32.3199,
    "lon": -106.7637,
    "id": "US-NM-LasCruces"
  },
  {
    "region": "North America",
    "country": "USA",
    "country_jp": "アメリカ合衆国",
    "countryCode": "US",
    "state": "Oregon",
    "state_jp": "オレゴン州",
    "stateCode": "OR",
    "name": "Portland",
    "name_jp": "ポートランド",
    "lat": 45.5152,
    "lon": -122.6784,
    "id": "US-OR-Portland"
  },
  {
    "region": "North America",
    "country": "USA",
    "country_jp": "アメリカ合衆国",
    "countryCode": "US",
    "state": "Oregon",
    "state_jp": "オレゴン州",
    "stateCode": "OR",
    "name": "Salem",
    "name_jp": "セーラム",
    "lat": 44.9429,
    "lon": -123.0351,
    "id": "US-OR-Salem"
  },
  {
    "region": "North America",
    "country": "USA",
    "country_jp": "アメリカ合衆国",
    "countryCode": "US",
    "state": "Oregon",
    "state_jp": "オレゴン州",
    "stateCode": "OR",
    "name": "Eugene",
    "name_jp": "ユージーン",
    "lat": 44.0521,
    "lon": -123.0868,
    "id": "US-OR-Eugene"
  },
  {
    "region": "North America",
    "country": "USA",
    "country_jp": "アメリカ合衆国",
    "countryCode": "US",
    "state": "Oregon",
    "state_jp": "オレゴン州",
    "stateCode": "OR",
    "name": "Medford",
    "name_jp": "メドフォード",
    "lat": 42.3265,
    "lon": -122.8756,
    "id": "US-OR-Medford"
  },
  {
    "region": "North America",
    "country": "USA",
    "country_jp": "アメリカ合衆国",
    "countryCode": "US",
    "state": "Oregon",
    "state_jp": "オレゴン州",
    "stateCode": "OR",
    "name": "Pendleton",
    "name_jp": "ペンドルトン",
    "lat": 45.6721,
    "lon": -118.7886,
    "id": "US-OR-Pendleton"
  },
  {
    "region": "North America",
    "country": "USA",
    "country_jp": "アメリカ合衆国",
    "countryCode": "US",
    "state": "Washington",
    "state_jp": "ワシントン州",
    "stateCode": "WA",
    "name": "Seattle",
    "name_jp": "シアトル",
    "lat": 47.6062,
    "lon": -122.3321,
    "id": "US-WA-Seattle"
  },
  {
    "region": "North America",
    "country": "USA",
    "country_jp": "アメリカ合衆国",
    "countryCode": "US",
    "state": "Washington",
    "state_jp": "ワシントン州",
    "stateCode": "WA",
    "name": "Tacoma",
    "name_jp": "タコマ",
    "lat": 47.2529,
    "lon": -122.4443,
    "id": "US-WA-Tacoma"
  },
  {
    "region": "North America",
    "country": "USA",
    "country_jp": "アメリカ合衆国",
    "countryCode": "US",
    "state": "Washington",
    "state_jp": "ワシントン州",
    "stateCode": "WA",
    "name": "Spokane",
    "name_jp": "スポケーン",
    "lat": 47.6588,
    "lon": -117.426,
    "id": "US-WA-Spokane"
  },
  {
    "region": "North America",
    "country": "USA",
    "country_jp": "アメリカ合衆国",
    "countryCode": "US",
    "state": "Washington",
    "state_jp": "ワシントン州",
    "stateCode": "WA",
    "name": "Everett",
    "name_jp": "エバレット",
    "lat": 47.978,
    "lon": -122.2021,
    "id": "US-WA-Everett"
  },
  {
    "region": "North America",
    "country": "USA",
    "country_jp": "アメリカ合衆国",
    "countryCode": "US",
    "state": "Washington",
    "state_jp": "ワシントン州",
    "stateCode": "WA",
    "name": "Yakima",
    "name_jp": "ヤキマ",
    "lat": 46.6021,
    "lon": -120.5059,
    "id": "US-WA-Yakima"
  },
  {
    "region": "North America",
    "country": "USA",
    "country_jp": "アメリカ合衆国",
    "countryCode": "US",
    "state": "Utah",
    "state_jp": "ユタ州",
    "stateCode": "UT",
    "name": "Salt Lake City",
    "name_jp": "ソルトレイクシティ",
    "lat": 40.7608,
    "lon": -111.891,
    "id": "US-UT-SaltLakeCity"
  },
  {
    "region": "North America",
    "country": "USA",
    "country_jp": "アメリカ合衆国",
    "countryCode": "US",
    "state": "Utah",
    "state_jp": "ユタ州",
    "stateCode": "UT",
    "name": "Ogden",
    "name_jp": "オグデン",
    "lat": 41.223,
    "lon": -111.9738,
    "id": "US-UT-Ogden"
  },
  {
    "region": "North America",
    "country": "USA",
    "country_jp": "アメリカ合衆国",
    "countryCode": "US",
    "state": "Utah",
    "state_jp": "ユタ州",
    "stateCode": "UT",
    "name": "Provo",
    "name_jp": "プロボ",
    "lat": 40.2338,
    "lon": -111.6585,
    "id": "US-UT-Provo"
  },
  {
    "region": "North America",
    "country": "USA",
    "country_jp": "アメリカ合衆国",
    "countryCode": "US",
    "state": "Utah",
    "state_jp": "ユタ州",
    "stateCode": "UT",
    "name": "Moab",
    "name_jp": "モアブ",
    "lat": 38.5733,
    "lon": -109.5498,
    "id": "US-UT-Moab"
  },
  {
    "region": "North America",
    "country": "USA",
    "country_jp": "アメリカ合衆国",
    "countryCode": "US",
    "state": "Utah",
    "state_jp": "ユタ州",
    "stateCode": "UT",
    "name": "St. George",
    "name_jp": "セントジョージ",
    "lat": 37.0965,
    "lon": -113.5684,
    "id": "US-UT-StGeorge"
  },
  {
    "region": "North America",
    "country": "USA",
    "country_jp": "アメリカ合衆国",
    "countryCode": "US",
    "state": "Idaho",
    "state_jp": "アイダホ州",
    "stateCode": "ID",
    "name": "Boise",
    "name_jp": "ボイシ",
    "lat": 43.615,
    "lon": -116.2023,
    "id": "US-ID-Boise"
  },
  {
    "region": "North America",
    "country": "USA",
    "country_jp": "アメリカ合衆国",
    "countryCode": "US",
    "state": "Idaho",
    "state_jp": "アイダホ州",
    "stateCode": "ID",
    "name": "Twin Falls",
    "name_jp": "ツインフォールズ",
    "lat": 42.5629,
    "lon": -114.4609,
    "id": "US-ID-TwinFalls"
  },
  {
    "region": "North America",
    "country": "USA",
    "country_jp": "アメリカ合衆国",
    "countryCode": "US",
    "state": "Idaho",
    "state_jp": "アイダホ州",
    "stateCode": "ID",
    "name": "Idaho Falls",
    "name_jp": "アイダホフォールズ",
    "lat": 43.4917,
    "lon": -112.0339,
    "id": "US-ID-IdahoFalls"
  },
  {
    "region": "North America",
    "country": "USA",
    "country_jp": "アメリカ合衆国",
    "countryCode": "US",
    "state": "Idaho",
    "state_jp": "アイダホ州",
    "stateCode": "ID",
    "name": "Pocatello",
    "name_jp": "ポカテロ",
    "lat": 42.8713,
    "lon": -112.4455,
    "id": "US-ID-Pocatello"
  },
  {
    "region": "North America",
    "country": "USA",
    "country_jp": "アメリカ合衆国",
    "countryCode": "US",
    "state": "Idaho",
    "state_jp": "アイダホ州",
    "stateCode": "ID",
    "name": "Coeur d'Alene",
    "name_jp": "クーアダリーン",
    "lat": 47.6777,
    "lon": -116.7805,
    "id": "US-ID-CoeurdAlene"
  },
  {
    "region": "North America",
    "country": "USA",
    "country_jp": "アメリカ合衆国",
    "countryCode": "US",
    "state": "Montana",
    "state_jp": "モンタナ州",
    "stateCode": "MT",
    "name": "Billings",
    "name_jp": "ビリングス",
    "lat": 45.7833,
    "lon": -108.5007,
    "id": "US-MT-Billings"
  },
  {
    "region": "North America",
    "country": "USA",
    "country_jp": "アメリカ合衆国",
    "countryCode": "US",
    "state": "Montana",
    "state_jp": "モンタナ州",
    "stateCode": "MT",
    "name": "Great Falls",
    "name_jp": "グレートフォールズ",
    "lat": 47.5053,
    "lon": -111.3008,
    "id": "US-MT-GreatFalls"
  },
  {
    "region": "North America",
    "country": "USA",
    "country_jp": "アメリカ合衆国",
    "countryCode": "US",
    "state": "Montana",
    "state_jp": "モンタナ州",
    "stateCode": "MT",
    "name": "Helena",
    "name_jp": "ヘレナ",
    "lat": 46.5891,
    "lon": -112.0391,
    "id": "US-MT-Helena"
  },
  {
    "region": "North America",
    "country": "USA",
    "country_jp": "アメリカ合衆国",
    "countryCode": "US",
    "state": "Montana",
    "state_jp": "モンタナ州",
    "stateCode": "MT",
    "name": "Missoula",
    "name_jp": "ミズーラ",
    "lat": 46.8721,
    "lon": -113.994,
    "id": "US-MT-Missoula"
  },
  {
    "region": "North America",
    "country": "USA",
    "country_jp": "アメリカ合衆国",
    "countryCode": "US",
    "state": "Montana",
    "state_jp": "モンタナ州",
    "stateCode": "MT",
    "name": "Kalispell",
    "name_jp": "カリスペル",
    "lat": 48.1958,
    "lon": -114.3129,
    "id": "US-MT-Kalispell"
  },
  {
    "region": "North America",
    "country": "USA",
    "country_jp": "アメリカ合衆国",
    "countryCode": "US",
    "state": "Wyoming",
    "state_jp": "ワイオミング州",
    "stateCode": "WY",
    "name": "Cheyenne",
    "name_jp": "シャイアン",
    "lat": 41.14,
    "lon": -104.8202,
    "id": "US-WY-Cheyenne"
  },
  {
    "region": "North America",
    "country": "USA",
    "country_jp": "アメリカ合衆国",
    "countryCode": "US",
    "state": "Wyoming",
    "state_jp": "ワイオミング州",
    "stateCode": "WY",
    "name": "Casper",
    "name_jp": "キャスパー",
    "lat": 42.8666,
    "lon": -106.3131,
    "id": "US-WY-Casper"
  },
  {
    "region": "North America",
    "country": "USA",
    "country_jp": "アメリカ合衆国",
    "countryCode": "US",
    "state": "Wyoming",
    "state_jp": "ワイオミング州",
    "stateCode": "WY",
    "name": "Rock Springs",
    "name_jp": "ロックスプリングス",
    "lat": 41.5868,
    "lon": -109.2029,
    "id": "US-WY-RockSprings"
  },
  {
    "region": "North America",
    "country": "USA",
    "country_jp": "アメリカ合衆国",
    "countryCode": "US",
    "state": "Wyoming",
    "state_jp": "ワイオミング州",
    "stateCode": "WY",
    "name": "Sheridan",
    "name_jp": "シェリダン",
    "lat": 44.7972,
    "lon": -106.9562,
    "id": "US-WY-Sheridan"
  },
  {
    "region": "North America",
    "country": "USA",
    "country_jp": "アメリカ合衆国",
    "countryCode": "US",
    "state": "Colorado",
    "state_jp": "コロラド州",
    "stateCode": "CO",
    "name": "Denver",
    "name_jp": "デンバー",
    "lat": 39.7392,
    "lon": -104.9903,
    "id": "US-CO-Denver"
  },
  {
    "region": "North America",
    "country": "USA",
    "country_jp": "アメリカ合衆国",
    "countryCode": "US",
    "state": "Colorado",
    "state_jp": "コロラド州",
    "stateCode": "CO",
    "name": "Colorado Springs",
    "name_jp": "コロラドスプリングス",
    "lat": 38.8339,
    "lon": -104.8214,
    "id": "US-CO-ColoradoSprings"
  },
  {
    "region": "North America",
    "country": "USA",
    "country_jp": "アメリカ合衆国",
    "countryCode": "US",
    "state": "Colorado",
    "state_jp": "コロラド州",
    "stateCode": "CO",
    "name": "Pueblo",
    "name_jp": "プエブロ",
    "lat": 38.2544,
    "lon": -104.6091,
    "id": "US-CO-Pueblo"
  },
  {
    "region": "North America",
    "country": "USA",
    "country_jp": "アメリカ合衆国",
    "countryCode": "US",
    "state": "Colorado",
    "state_jp": "コロラド州",
    "stateCode": "CO",
    "name": "Grand Junction",
    "name_jp": "グランドジャンクション",
    "lat": 39.0639,
    "lon": -108.5506,
    "id": "US-CO-GrandJunction"
  },
  {
    "region": "North America",
    "country": "USA",
    "country_jp": "アメリカ合衆国",
    "countryCode": "US",
    "state": "Colorado",
    "state_jp": "コロラド州",
    "stateCode": "CO",
    "name": "Steamboat Springs",
    "name_jp": "スチームボートスプリングス",
    "lat": 40.485,
    "lon": -106.8317,
    "id": "US-CO-SteamboatSprings"
  },
  {
    "region": "North America",
    "country": "USA",
    "country_jp": "アメリカ合衆国",
    "countryCode": "US",
    "state": "Texas",
    "state_jp": "テキサス州",
    "stateCode": "TX",
    "name": "Dallas",
    "name_jp": "ダラス",
    "lat": 32.7767,
    "lon": -96.797,
    "id": "US-TX-Dallas"
  },
  {
    "region": "North America",
    "country": "USA",
    "country_jp": "アメリカ合衆国",
    "countryCode": "US",
    "state": "Texas",
    "state_jp": "テキサス州",
    "stateCode": "TX",
    "name": "Fort Worth",
    "name_jp": "フォートワース",
    "lat": 32.7555,
    "lon": -97.3308,
    "id": "US-TX-FortWorth"
  },
  {
    "region": "North America",
    "country": "USA",
    "country_jp": "アメリカ合衆国",
    "countryCode": "US",
    "state": "Texas",
    "state_jp": "テキサス州",
    "stateCode": "TX",
    "name": "Houston",
    "name_jp": "ヒューストン",
    "lat": 29.7604,
    "lon": -95.3698,
    "id": "US-TX-Houston"
  },
  {
    "region": "North America",
    "country": "USA",
    "country_jp": "アメリカ合衆国",
    "countryCode": "US",
    "state": "Texas",
    "state_jp": "テキサス州",
    "stateCode": "TX",
    "name": "San Antonio",
    "name_jp": "サンアントニオ",
    "lat": 29.4241,
    "lon": -98.4936,
    "id": "US-TX-SanAntonio"
  },
  {
    "region": "North America",
    "country": "USA",
    "country_jp": "アメリカ合衆国",
    "countryCode": "US",
    "state": "Texas",
    "state_jp": "テキサス州",
    "stateCode": "TX",
    "name": "Austin",
    "name_jp": "オースティン",
    "lat": 30.2672,
    "lon": -97.7431,
    "id": "US-TX-Austin"
  },
  {
    "region": "North America",
    "country": "USA",
    "country_jp": "アメリカ合衆国",
    "countryCode": "US",
    "state": "Texas",
    "state_jp": "テキサス州",
    "stateCode": "TX",
    "name": "El Paso",
    "name_jp": "エルパソ",
    "lat": 31.7619,
    "lon": -106.485,
    "id": "US-TX-ElPaso"
  },
  {
    "region": "North America",
    "country": "USA",
    "country_jp": "アメリカ合衆国",
    "countryCode": "US",
    "state": "Texas",
    "state_jp": "テキサス州",
    "stateCode": "TX",
    "name": "Laredo",
    "name_jp": "ラレド",
    "lat": 27.5306,
    "lon": -99.4803,
    "id": "US-TX-Laredo"
  },
  {
    "region": "North America",
    "country": "USA",
    "country_jp": "アメリカ合衆国",
    "countryCode": "US",
    "state": "Texas",
    "state_jp": "テキサス州",
    "stateCode": "TX",
    "name": "Corpus Christi",
    "name_jp": "コーパスクリスティ",
    "lat": 27.8006,
    "lon": -97.3964,
    "id": "US-TX-CorpusChristi"
  },
  {
    "region": "North America",
    "country": "USA",
    "country_jp": "アメリカ合衆国",
    "countryCode": "US",
    "state": "Oklahoma",
    "state_jp": "オクラホマ州",
    "stateCode": "OK",
    "name": "Oklahoma City",
    "name_jp": "オクラホマシティ",
    "lat": 35.4676,
    "lon": -97.5164,
    "id": "US-OK-OklahomaCity"
  },
  {
    "region": "North America",
    "country": "USA",
    "country_jp": "アメリカ合衆国",
    "countryCode": "US",
    "state": "Oklahoma",
    "state_jp": "オクラホマ州",
    "stateCode": "OK",
    "name": "Tulsa",
    "name_jp": "タルサ",
    "lat": 36.1539,
    "lon": -95.9928,
    "id": "US-OK-Tulsa"
  },
  {
    "region": "North America",
    "country": "USA",
    "country_jp": "アメリカ合衆国",
    "countryCode": "US",
    "state": "Oklahoma",
    "state_jp": "オクラホマ州",
    "stateCode": "OK",
    "name": "Lawton",
    "name_jp": "ロートン",
    "lat": 34.6036,
    "lon": -98.3959,
    "id": "US-OK-Lawton"
  },
  {
    "region": "North America",
    "country": "USA",
    "country_jp": "アメリカ合衆国",
    "countryCode": "US",
    "state": "Kansas",
    "state_jp": "カンザス州",
    "stateCode": "KS",
    "name": "Wichita",
    "name_jp": "ウィチタ",
    "lat": 37.6872,
    "lon": -97.3301,
    "id": "US-KS-Wichita"
  },
  {
    "region": "North America",
    "country": "USA",
    "country_jp": "アメリカ合衆国",
    "countryCode": "US",
    "state": "Kansas",
    "state_jp": "カンザス州",
    "stateCode": "KS",
    "name": "Topeka",
    "name_jp": "トピーカ",
    "lat": 39.0473,
    "lon": -95.6752,
    "id": "US-KS-Topeka"
  },
  {
    "region": "North America",
    "country": "USA",
    "country_jp": "アメリカ合衆国",
    "countryCode": "US",
    "state": "Kansas",
    "state_jp": "カンザス州",
    "stateCode": "KS",
    "name": "Dodge City",
    "name_jp": "ドッジシティ",
    "lat": 37.7528,
    "lon": -100.0171,
    "id": "US-KS-DodgeCity"
  },
  {
    "region": "North America",
    "country": "USA",
    "country_jp": "アメリカ合衆国",
    "countryCode": "US",
    "state": "Nebraska",
    "state_jp": "ネブラスカ州",
    "stateCode": "NE",
    "name": "Omaha",
    "name_jp": "オマハ",
    "lat": 41.2565,
    "lon": -95.9345,
    "id": "US-NE-Omaha"
  },
  {
    "region": "North America",
    "country": "USA",
    "country_jp": "アメリカ合衆国",
    "countryCode": "US",
    "state": "Nebraska",
    "state_jp": "ネブラスカ州",
    "stateCode": "NE",
    "name": "Lincoln",
    "name_jp": "リンカーン",
    "lat": 40.8136,
    "lon": -96.7026,
    "id": "US-NE-Lincoln"
  },
  {
    "region": "North America",
    "country": "USA",
    "country_jp": "アメリカ合衆国",
    "countryCode": "US",
    "state": "Nebraska",
    "state_jp": "ネブラスカ州",
    "stateCode": "NE",
    "name": "Scottsbluff",
    "name_jp": "スコッツブラフ",
    "lat": 41.8666,
    "lon": -103.6672,
    "id": "US-NE-Scottsbluff"
  },
  {
    "region": "North America",
    "country": "USA",
    "country_jp": "アメリカ合衆国",
    "countryCode": "US",
    "state": "Arkansas",
    "state_jp": "アーカンソー州",
    "stateCode": "AR",
    "name": "Little Rock",
    "name_jp": "リトルロック",
    "lat": 34.7465,
    "lon": -92.2896,
    "id": "US-AR-LittleRock"
  },
  {
    "region": "North America",
    "country": "USA",
    "country_jp": "アメリカ合衆国",
    "countryCode": "US",
    "state": "Arkansas",
    "state_jp": "アーカンソー州",
    "stateCode": "AR",
    "name": "Fayetteville",
    "name_jp": "フェイエットビル",
    "lat": 36.0822,
    "lon": -94.1719,
    "id": "US-AR-Fayetteville"
  },
  {
    "region": "North America",
    "country": "USA",
    "country_jp": "アメリカ合衆国",
    "countryCode": "US",
    "state": "Missouri",
    "state_jp": "ミズーリ州",
    "stateCode": "MO",
    "name": "Kansas City",
    "name_jp": "カンザスシティ",
    "lat": 39.0997,
    "lon": -94.5786,
    "id": "US-MO-KansasCity"
  },
  {
    "region": "North America",
    "country": "USA",
    "country_jp": "アメリカ合衆国",
    "countryCode": "US",
    "state": "Missouri",
    "state_jp": "ミズーリ州",
    "stateCode": "MO",
    "name": "St. Louis",
    "name_jp": "セントルイス",
    "lat": 38.627,
    "lon": -90.1994,
    "id": "US-MO-StLouis"
  },
  {
    "region": "North America",
    "country": "USA",
    "country_jp": "アメリカ合衆国",
    "countryCode": "US",
    "state": "Missouri",
    "state_jp": "ミズーリ州",
    "stateCode": "MO",
    "name": "Springfield",
    "name_jp": "スプリングフィールド",
    "lat": 37.2089,
    "lon": -93.2923,
    "id": "US-MO-Springfield"
  },
  {
    "region": "North America",
    "country": "USA",
    "country_jp": "アメリカ合衆国",
    "countryCode": "US",
    "state": "Iowa",
    "state_jp": "アイオワ州",
    "stateCode": "IA",
    "name": "Des Moines",
    "name_jp": "デモイン",
    "lat": 41.5868,
    "lon": -93.625,
    "id": "US-IA-DesMoines"
  },
  {
    "region": "North America",
    "country": "USA",
    "country_jp": "アメリカ合衆国",
    "countryCode": "US",
    "state": "Iowa",
    "state_jp": "アイオワ州",
    "stateCode": "IA",
    "name": "Davenport",
    "name_jp": "ダベンポート",
    "lat": 41.5236,
    "lon": -90.5776,
    "id": "US-IA-Davenport"
  },
  {
    "region": "North America",
    "country": "USA",
    "country_jp": "アメリカ合衆国",
    "countryCode": "US",
    "state": "Minnesota",
    "state_jp": "ミネソタ州",
    "stateCode": "MN",
    "name": "Minneapolis",
    "name_jp": "ミネアポリス",
    "lat": 44.9778,
    "lon": -93.265,
    "id": "US-MN-Minneapolis"
  },
  {
    "region": "North America",
    "country": "USA",
    "country_jp": "アメリカ合衆国",
    "countryCode": "US",
    "state": "Minnesota",
    "state_jp": "ミネソタ州",
    "stateCode": "MN",
    "name": "St. Paul",
    "name_jp": "セントポール",
    "lat": 44.9537,
    "lon": -93.09,
    "id": "US-MN-StPaul"
  },
  {
    "region": "North America",
    "country": "USA",
    "country_jp": "アメリカ合衆国",
    "countryCode": "US",
    "state": "Minnesota",
    "state_jp": "ミネソタ州",
    "stateCode": "MN",
    "name": "Duluth",
    "name_jp": "ダルース",
    "lat": 46.7867,
    "lon": -92.1005,
    "id": "US-MN-Duluth"
  },
  {
    "region": "North America",
    "country": "USA",
    "country_jp": "アメリカ合衆国",
    "countryCode": "US",
    "state": "South Dakota",
    "state_jp": "サウスダコタ州",
    "stateCode": "SD",
    "name": "Sioux Falls",
    "name_jp": "スーフォールズ",
    "lat": 43.5446,
    "lon": -96.7311,
    "id": "US-SD-SiouxFalls"
  },
  {
    "region": "North America",
    "country": "USA",
    "country_jp": "アメリカ合衆国",
    "countryCode": "US",
    "state": "South Dakota",
    "state_jp": "サウスダコタ州",
    "stateCode": "SD",
    "name": "Rapid City",
    "name_jp": "ラピッドシティ",
    "lat": 44.0805,
    "lon": -103.231,
    "id": "US-SD-RapidCity"
  },
  {
    "region": "North America",
    "country": "USA",
    "country_jp": "アメリカ合衆国",
    "countryCode": "US",
    "state": "North Dakota",
    "state_jp": "ノースダコタ州",
    "stateCode": "ND",
    "name": "Fargo",
    "name_jp": "ファーゴ",
    "lat": 46.8772,
    "lon": -96.7898,
    "id": "US-ND-Fargo"
  },
  {
    "region": "North America",
    "country": "USA",
    "country_jp": "アメリカ合衆国",
    "countryCode": "US",
    "state": "North Dakota",
    "state_jp": "ノースダコタ州",
    "stateCode": "ND",
    "name": "Bismarck",
    "name_jp": "ビスマーク",
    "lat": 46.8083,
    "lon": -100.7837,
    "id": "US-ND-Bismarck"
  },
  {
    "region": "North America",
    "country": "USA",
    "country_jp": "アメリカ合衆国",
    "countryCode": "US",
    "state": "Wisconsin",
    "state_jp": "ウィスコンシン州",
    "stateCode": "WI",
    "name": "Milwaukee",
    "name_jp": "ミルウォーキー",
    "lat": 43.0389,
    "lon": -87.9065,
    "id": "US-WI-Milwaukee"
  },
  {
    "region": "North America",
    "country": "USA",
    "country_jp": "アメリカ合衆国",
    "countryCode": "US",
    "state": "Wisconsin",
    "state_jp": "ウィスコンシン州",
    "stateCode": "WI",
    "name": "Madison",
    "name_jp": "マディソン",
    "lat": 43.0731,
    "lon": -89.4012,
    "id": "US-WI-Madison"
  },
  {
    "region": "North America",
    "country": "USA",
    "country_jp": "アメリカ合衆国",
    "countryCode": "US",
    "state": "Wisconsin",
    "state_jp": "ウィスコンシン州",
    "stateCode": "WI",
    "name": "Green Bay",
    "name_jp": "グリーンベイ",
    "lat": 44.5133,
    "lon": -88.0133,
    "id": "US-WI-GreenBay"
  },
  {
    "region": "North America",
    "country": "USA",
    "country_jp": "アメリカ合衆国",
    "countryCode": "US",
    "state": "Illinois",
    "state_jp": "イリノイ州",
    "stateCode": "IL",
    "name": "Chicago",
    "name_jp": "シカゴ",
    "lat": 41.8781,
    "lon": -87.6298,
    "id": "US-IL-Chicago"
  },
  {
    "region": "North America",
    "country": "USA",
    "country_jp": "アメリカ合衆国",
    "countryCode": "US",
    "state": "Illinois",
    "state_jp": "イリノイ州",
    "stateCode": "IL",
    "name": "Rockford",
    "name_jp": "ロックフォード",
    "lat": 42.2711,
    "lon": -89.0937,
    "id": "US-IL-Rockford"
  },
  {
    "region": "North America",
    "country": "USA",
    "country_jp": "アメリカ合衆国",
    "countryCode": "US",
    "state": "Illinois",
    "state_jp": "イリノイ州",
    "stateCode": "IL",
    "name": "Springfield",
    "name_jp": "スプリングフィールド",
    "lat": 39.7817,
    "lon": -89.6501,
    "id": "US-IL-Springfield"
  },
  {
    "region": "North America",
    "country": "USA",
    "country_jp": "アメリカ合衆国",
    "countryCode": "US",
    "state": "Michigan",
    "state_jp": "ミシガン州",
    "stateCode": "MI",
    "name": "Detroit",
    "name_jp": "デトロイト",
    "lat": 42.3314,
    "lon": -83.0458,
    "id": "US-MI-Detroit"
  },
  {
    "region": "North America",
    "country": "USA",
    "country_jp": "アメリカ合衆国",
    "countryCode": "US",
    "state": "Michigan",
    "state_jp": "ミシガン州",
    "stateCode": "MI",
    "name": "Grand Rapids",
    "name_jp": "グランドラピッズ",
    "lat": 42.9634,
    "lon": -85.6681,
    "id": "US-MI-GrandRapids"
  },
  {
    "region": "North America",
    "country": "USA",
    "country_jp": "アメリカ合衆国",
    "countryCode": "US",
    "state": "Michigan",
    "state_jp": "ミシガン州",
    "stateCode": "MI",
    "name": "Lansing",
    "name_jp": "ランシング",
    "lat": 42.7325,
    "lon": -84.5555,
    "id": "US-MI-Lansing"
  },
  {
    "region": "North America",
    "country": "USA",
    "country_jp": "アメリカ合衆国",
    "countryCode": "US",
    "state": "Indiana",
    "state_jp": "インディアナ州",
    "stateCode": "IN",
    "name": "Indianapolis",
    "name_jp": "インディアナポリス",
    "lat": 39.7684,
    "lon": -86.1581,
    "id": "US-IN-Indianapolis"
  },
  {
    "region": "North America",
    "country": "USA",
    "country_jp": "アメリカ合衆国",
    "countryCode": "US",
    "state": "Indiana",
    "state_jp": "インディアナ州",
    "stateCode": "IN",
    "name": "Fort Wayne",
    "name_jp": "フォートウェイン",
    "lat": 41.0793,
    "lon": -85.1394,
    "id": "US-IN-FortWayne"
  },
  {
    "region": "North America",
    "country": "USA",
    "country_jp": "アメリカ合衆国",
    "countryCode": "US",
    "state": "Indiana",
    "state_jp": "インディアナ州",
    "stateCode": "IN",
    "name": "Evansville",
    "name_jp": "エバンズビル",
    "lat": 37.9716,
    "lon": -87.5711,
    "id": "US-IN-Evansville"
  },
  {
    "region": "North America",
    "country": "USA",
    "country_jp": "アメリカ合衆国",
    "countryCode": "US",
    "state": "Ohio",
    "state_jp": "オハイオ州",
    "stateCode": "OH",
    "name": "Columbus",
    "name_jp": "コロンバス",
    "lat": 39.9612,
    "lon": -82.9988,
    "id": "US-OH-Columbus"
  },
  {
    "region": "North America",
    "country": "USA",
    "country_jp": "アメリカ合衆国",
    "countryCode": "US",
    "state": "Ohio",
    "state_jp": "オハイオ州",
    "stateCode": "OH",
    "name": "Cleveland",
    "name_jp": "クリーブランド",
    "lat": 41.4993,
    "lon": -81.6944,
    "id": "US-OH-Cleveland"
  },
  {
    "region": "North America",
    "country": "USA",
    "country_jp": "アメリカ合衆国",
    "countryCode": "US",
    "state": "Ohio",
    "state_jp": "オハイオ州",
    "stateCode": "OH",
    "name": "Cincinnati",
    "name_jp": "シンシナティ",
    "lat": 39.1031,
    "lon": -84.512,
    "id": "US-OH-Cincinnati"
  },
  {
    "region": "North America",
    "country": "USA",
    "country_jp": "アメリカ合衆国",
    "countryCode": "US",
    "state": "Ohio",
    "state_jp": "オハイオ州",
    "stateCode": "OH",
    "name": "Toledo",
    "name_jp": "トレド",
    "lat": 41.6528,
    "lon": -83.5379,
    "id": "US-OH-Toledo"
  },
  {
    "region": "North America",
    "country": "USA",
    "country_jp": "アメリカ合衆国",
    "countryCode": "US",
    "state": "Kentucky",
    "state_jp": "ケンタッキー州",
    "stateCode": "KY",
    "name": "Louisville",
    "name_jp": "ルイビル",
    "lat": 38.2527,
    "lon": -85.7585,
    "id": "US-KY-Louisville"
  },
  {
    "region": "North America",
    "country": "USA",
    "country_jp": "アメリカ合衆国",
    "countryCode": "US",
    "state": "Kentucky",
    "state_jp": "ケンタッキー州",
    "stateCode": "KY",
    "name": "Lexington",
    "name_jp": "レキシントン",
    "lat": 38.0406,
    "lon": -84.5037,
    "id": "US-KY-Lexington"
  },
  {
    "region": "North America",
    "country": "USA",
    "country_jp": "アメリカ合衆国",
    "countryCode": "US",
    "state": "Tennessee",
    "state_jp": "テネシー州",
    "stateCode": "TN",
    "name": "Nashville",
    "name_jp": "ナッシュビル",
    "lat": 36.1627,
    "lon": -86.7816,
    "id": "US-TN-Nashville"
  },
  {
    "region": "North America",
    "country": "USA",
    "country_jp": "アメリカ合衆国",
    "countryCode": "US",
    "state": "Tennessee",
    "state_jp": "テネシー州",
    "stateCode": "TN",
    "name": "Memphis",
    "name_jp": "メンフィス",
    "lat": 35.1495,
    "lon": -90.049,
    "id": "US-TN-Memphis"
  },
  {
    "region": "North America",
    "country": "USA",
    "country_jp": "アメリカ合衆国",
    "countryCode": "US",
    "state": "Tennessee",
    "state_jp": "テネシー州",
    "stateCode": "TN",
    "name": "Knoxville",
    "name_jp": "ノックスビル",
    "lat": 35.9606,
    "lon": -83.9207,
    "id": "US-TN-Knoxville"
  },
  {
    "region": "North America",
    "country": "USA",
    "country_jp": "アメリカ合衆国",
    "countryCode": "US",
    "state": "West Virginia",
    "state_jp": "ウェストバージニア州",
    "stateCode": "WV",
    "name": "Charleston",
    "name_jp": "チャールストン",
    "lat": 38.3498,
    "lon": -81.6326,
    "id": "US-WV-Charleston"
  },
  {
    "region": "North America",
    "country": "USA",
    "country_jp": "アメリカ合衆国",
    "countryCode": "US",
    "state": "West Virginia",
    "state_jp": "ウェストバージニア州",
    "stateCode": "WV",
    "name": "Huntington",
    "name_jp": "ハンティントン",
    "lat": 38.4192,
    "lon": -82.4452,
    "id": "US-WV-Huntington"
  },
  {
    "region": "North America",
    "country": "USA",
    "country_jp": "アメリカ合衆国",
    "countryCode": "US",
    "state": "Virginia",
    "state_jp": "バージニア州",
    "stateCode": "VA",
    "name": "Richmond",
    "name_jp": "リッチモンド",
    "lat": 37.5407,
    "lon": -77.436,
    "id": "US-VA-Richmond"
  },
  {
    "region": "North America",
    "country": "USA",
    "country_jp": "アメリカ合衆国",
    "countryCode": "US",
    "state": "Virginia",
    "state_jp": "バージニア州",
    "stateCode": "VA",
    "name": "Norfolk",
    "name_jp": "ノーフォーク",
    "lat": 36.8508,
    "lon": -76.2859,
    "id": "US-VA-Norfolk"
  },
  {
    "region": "North America",
    "country": "USA",
    "country_jp": "アメリカ合衆国",
    "countryCode": "US",
    "state": "North Carolina",
    "state_jp": "ノースカロライナ州",
    "stateCode": "NC",
    "name": "Charlotte",
    "name_jp": "シャーロット",
    "lat": 35.2271,
    "lon": -80.8431,
    "id": "US-NC-Charlotte"
  },
  {
    "region": "North America",
    "country": "USA",
    "country_jp": "アメリカ合衆国",
    "countryCode": "US",
    "state": "North Carolina",
    "state_jp": "ノースカロライナ州",
    "stateCode": "NC",
    "name": "Raleigh",
    "name_jp": "ローリー",
    "lat": 35.7796,
    "lon": -78.6382,
    "id": "US-NC-Raleigh"
  },
  {
    "region": "North America",
    "country": "USA",
    "country_jp": "アメリカ合衆国",
    "countryCode": "US",
    "state": "North Carolina",
    "state_jp": "ノースカロライナ州",
    "stateCode": "NC",
    "name": "Wilmington",
    "name_jp": "ウィルミントン",
    "lat": 34.2257,
    "lon": -77.9447,
    "id": "US-NC-Wilmington"
  },
  {
    "region": "North America",
    "country": "USA",
    "country_jp": "アメリカ合衆国",
    "countryCode": "US",
    "state": "South Carolina",
    "state_jp": "サウスカロライナ州",
    "stateCode": "SC",
    "name": "Columbia",
    "name_jp": "コロンビア",
    "lat": 34.0007,
    "lon": -81.0348,
    "id": "US-SC-Columbia"
  },
  {
    "region": "North America",
    "country": "USA",
    "country_jp": "アメリカ合衆国",
    "countryCode": "US",
    "state": "South Carolina",
    "state_jp": "サウスカロライナ州",
    "stateCode": "SC",
    "name": "Charleston",
    "name_jp": "チャールストン",
    "lat": 32.7765,
    "lon": -79.9311,
    "id": "US-SC-Charleston"
  },
  {
    "region": "North America",
    "country": "USA",
    "country_jp": "アメリカ合衆国",
    "countryCode": "US",
    "state": "Georgia",
    "state_jp": "ジョージア州",
    "stateCode": "GA",
    "name": "Atlanta",
    "name_jp": "アトランタ",
    "lat": 33.749,
    "lon": -84.388,
    "id": "US-GA-Atlanta"
  },
  {
    "region": "North America",
    "country": "USA",
    "country_jp": "アメリカ合衆国",
    "countryCode": "US",
    "state": "Georgia",
    "state_jp": "ジョージア州",
    "stateCode": "GA",
    "name": "Savannah",
    "name_jp": "サバンナ",
    "lat": 32.0809,
    "lon": -81.0912,
    "id": "US-GA-Savannah"
  },
  {
    "region": "North America",
    "country": "USA",
    "country_jp": "アメリカ合衆国",
    "countryCode": "US",
    "state": "Florida",
    "state_jp": "フロリダ州",
    "stateCode": "FL",
    "name": "Jacksonville",
    "name_jp": "ジャクソンビル",
    "lat": 30.3322,
    "lon": -81.6557,
    "id": "US-FL-Jacksonville"
  },
  {
    "region": "North America",
    "country": "USA",
    "country_jp": "アメリカ合衆国",
    "countryCode": "US",
    "state": "Florida",
    "state_jp": "フロリダ州",
    "stateCode": "FL",
    "name": "Orlando",
    "name_jp": "オーランド",
    "lat": 28.5383,
    "lon": -81.3792,
    "id": "US-FL-Orlando"
  },
  {
    "region": "North America",
    "country": "USA",
    "country_jp": "アメリカ合衆国",
    "countryCode": "US",
    "state": "Florida",
    "state_jp": "フロリダ州",
    "stateCode": "FL",
    "name": "Tampa",
    "name_jp": "タンパ",
    "lat": 27.9506,
    "lon": -82.4572,
    "id": "US-FL-Tampa"
  },
  {
    "region": "North America",
    "country": "USA",
    "country_jp": "アメリカ合衆国",
    "countryCode": "US",
    "state": "Florida",
    "state_jp": "フロリダ州",
    "stateCode": "FL",
    "name": "Miami",
    "name_jp": "マイアミ",
    "lat": 25.7617,
    "lon": -80.1918,
    "id": "US-FL-Miami"
  },
  {
    "region": "North America",
    "country": "USA",
    "country_jp": "アメリカ合衆国",
    "countryCode": "US",
    "state": "Alabama",
    "state_jp": "アラバマ州",
    "stateCode": "AL",
    "name": "Birmingham",
    "name_jp": "バーミングハム",
    "lat": 33.5186,
    "lon": -86.8104,
    "id": "US-AL-Birmingham"
  },
  {
    "region": "North America",
    "country": "USA",
    "country_jp": "アメリカ合衆国",
    "countryCode": "US",
    "state": "Alabama",
    "state_jp": "アラバマ州",
    "stateCode": "AL",
    "name": "Montgomery",
    "name_jp": "モンゴメリー",
    "lat": 32.3792,
    "lon": -86.3077,
    "id": "US-AL-Montgomery"
  },
  {
    "region": "North America",
    "country": "USA",
    "country_jp": "アメリカ合衆国",
    "countryCode": "US",
    "state": "Alabama",
    "state_jp": "アラバマ州",
    "stateCode": "AL",
    "name": "Mobile",
    "name_jp": "モービル",
    "lat": 30.6954,
    "lon": -88.0399,
    "id": "US-AL-Mobile"
  },
  {
    "region": "North America",
    "country": "USA",
    "country_jp": "アメリカ合衆国",
    "countryCode": "US",
    "state": "Mississippi",
    "state_jp": "ミシシッピ州",
    "stateCode": "MS",
    "name": "Jackson",
    "name_jp": "ジャクソン",
    "lat": 32.2988,
    "lon": -90.1848,
    "id": "US-MS-Jackson"
  },
  {
    "region": "North America",
    "country": "USA",
    "country_jp": "アメリカ合衆国",
    "countryCode": "US",
    "state": "Mississippi",
    "state_jp": "ミシシッピ州",
    "stateCode": "MS",
    "name": "Gulfport",
    "name_jp": "ガルフポート",
    "lat": 30.3674,
    "lon": -89.0928,
    "id": "US-MS-Gulfport"
  },
  {
    "region": "North America",
    "country": "USA",
    "country_jp": "アメリカ合衆国",
    "countryCode": "US",
    "state": "Louisiana",
    "state_jp": "ルイジアナ州",
    "stateCode": "LA",
    "name": "New Orleans",
    "name_jp": "ニューオーリンズ",
    "lat": 29.9511,
    "lon": -90.0715,
    "id": "US-LA-NewOrleans"
  },
  {
    "region": "North America",
    "country": "USA",
    "country_jp": "アメリカ合衆国",
    "countryCode": "US",
    "state": "Louisiana",
    "state_jp": "ルイジアナ州",
    "stateCode": "LA",
    "name": "Baton Rouge",
    "name_jp": "バトンルージュ",
    "lat": 30.4515,
    "lon": -91.1871,
    "id": "US-LA-BatonRouge"
  },
  {
    "region": "North America",
    "country": "USA",
    "country_jp": "アメリカ合衆国",
    "countryCode": "US",
    "state": "Louisiana",
    "state_jp": "ルイジアナ州",
    "stateCode": "LA",
    "name": "Lake Charles",
    "name_jp": "レイクチャールズ",
    "lat": 30.2266,
    "lon": -93.2174,
    "id": "US-LA-LakeCharles"
  },
  {
    "region": "North America",
    "country": "USA",
    "country_jp": "アメリカ合衆国",
    "countryCode": "US",
    "state": "Washington",
    "state_jp": "ワシントン州",
    "stateCode": "WA",
    "name": "Aberdeen",
    "name_jp": "Companies Features Aberdeen",
    "lat": 46.975205,
    "lon": -123.811373,
    "id": "US-WA-CompaniesFeaturesAberdeen",
    "ats": true,
    "removed": false,
    "source": "trucksimulator.wiki.gg (Cities/American_Truck_Simulator)"
  },
  {
    "region": "North America",
    "country": "USA",
    "country_jp": "アメリカ合衆国",
    "countryCode": "US",
    "state": "Texas",
    "state_jp": "テキサス州",
    "stateCode": "TX",
    "name": "Abilene",
    "name_jp": "Abilene",
    "lat": 32.454514,
    "lon": -99.738147,
    "id": "US-TX-Abilene",
    "ats": true,
    "removed": false,
    "source": "trucksimulator.wiki.gg (Cities/American_Truck_Simulator)"
  },
  {
    "region": "North America",
    "country": "USA",
    "country_jp": "アメリカ合衆国",
    "countryCode": "US",
    "state": "New Mexico",
    "state_jp": "ニューメキシコ州",
    "stateCode": "NM",
    "name": "Alamogordo",
    "name_jp": "Alamogordo",
    "lat": 32.883619,
    "lon": -105.963607,
    "id": "US-NM-Alamogordo",
    "ats": true,
    "removed": false,
    "source": "trucksimulator.wiki.gg (Cities/American_Truck_Simulator)"
  },
  {
    "region": "North America",
    "country": "USA",
    "country_jp": "アメリカ合衆国",
    "countryCode": "US",
    "state": "Colorado",
    "state_jp": "コロラド州",
    "stateCode": "CO",
    "name": "Alamosa",
    "name_jp": "Alamosa",
    "lat": 37.474528,
    "lon": -105.876956,
    "id": "US-CO-Alamosa",
    "ats": true,
    "removed": false,
    "source": "trucksimulator.wiki.gg (Cities/American_Truck_Simulator)"
  },
  {
    "region": "North America",
    "country": "USA",
    "country_jp": "アメリカ合衆国",
    "countryCode": "US",
    "state": "Louisiana",
    "state_jp": "ルイジアナ州",
    "stateCode": "LA",
    "name": "Alexandria",
    "name_jp": "Alexandria",
    "lat": 31.293449,
    "lon": -92.470189,
    "id": "US-LA-Alexandria",
    "ats": true,
    "removed": false,
    "source": "trucksimulator.wiki.gg (Cities/American_Truck_Simulator)"
  },
  {
    "region": "North America",
    "country": "USA",
    "country_jp": "アメリカ合衆国",
    "countryCode": "US",
    "state": "Nebraska",
    "state_jp": "ネブラスカ州",
    "stateCode": "NE",
    "name": "Alliance",
    "name_jp": "Alliance",
    "lat": 42.102567,
    "lon": -102.876188,
    "id": "US-NE-Alliance",
    "ats": true,
    "removed": false,
    "source": "trucksimulator.wiki.gg (Cities/American_Truck_Simulator)"
  },
  {
    "region": "North America",
    "country": "USA",
    "country_jp": "アメリカ合衆国",
    "countryCode": "US",
    "state": "Texas",
    "state_jp": "テキサス州",
    "stateCode": "TX",
    "name": "Amarillo",
    "name_jp": "Amarillo",
    "lat": 35.199903,
    "lon": -101.830194,
    "id": "US-TX-Amarillo",
    "ats": true,
    "removed": false,
    "source": "trucksimulator.wiki.gg (Cities/American_Truck_Simulator)"
  },
  {
    "region": "North America",
    "country": "USA",
    "country_jp": "アメリカ合衆国",
    "countryCode": "US",
    "state": "Oklahoma",
    "state_jp": "オクラホマ州",
    "stateCode": "OK",
    "name": "Ardmore",
    "name_jp": "Ardmore",
    "lat": 34.196507,
    "lon": -97.131848,
    "id": "US-OK-Ardmore",
    "ats": true,
    "removed": false,
    "source": "trucksimulator.wiki.gg (Cities/American_Truck_Simulator)"
  },
  {
    "region": "North America",
    "country": "USA",
    "country_jp": "アメリカ合衆国",
    "countryCode": "US",
    "state": "New Mexico",
    "state_jp": "ニューメキシコ州",
    "stateCode": "NM",
    "name": "Artesia",
    "name_jp": "Artesia",
    "lat": 32.852173,
    "lon": -104.42457,
    "id": "US-NM-Artesia",
    "ats": true,
    "removed": false,
    "source": "trucksimulator.wiki.gg (Cities/American_Truck_Simulator)"
  },
  {
    "region": "North America",
    "country": "USA",
    "country_jp": "アメリカ合衆国",
    "countryCode": "US",
    "state": "Oregon",
    "state_jp": "オレゴン州",
    "stateCode": "OR",
    "name": "Astoria",
    "name_jp": "Astoria",
    "lat": 46.187375,
    "lon": -123.815073,
    "id": "US-OR-Astoria",
    "ats": true,
    "removed": false,
    "source": "trucksimulator.wiki.gg (Cities/American_Truck_Simulator)"
  },
  {
    "region": "North America",
    "country": "USA",
    "country_jp": "アメリカ合衆国",
    "countryCode": "US",
    "state": "California",
    "state_jp": "カリフォルニア州",
    "stateCode": "CA",
    "name": "Barstow",
    "name_jp": "Barstow",
    "lat": 34.866987,
    "lon": -117.043035,
    "id": "US-CA-Barstow",
    "ats": true,
    "removed": false,
    "source": "trucksimulator.wiki.gg (Cities/American_Truck_Simulator)"
  },
  {
    "region": "North America",
    "country": "USA",
    "country_jp": "アメリカ合衆国",
    "countryCode": "US",
    "state": "Texas",
    "state_jp": "テキサス州",
    "stateCode": "TX",
    "name": "Beaumont",
    "name_jp": "Beaumont",
    "lat": 30.084912,
    "lon": -94.14533,
    "id": "US-TX-Beaumont",
    "ats": true,
    "removed": false,
    "source": "trucksimulator.wiki.gg (Cities/American_Truck_Simulator)"
  },
  {
    "region": "North America",
    "country": "USA",
    "country_jp": "アメリカ合衆国",
    "countryCode": "US",
    "state": "Washington",
    "state_jp": "ワシントン州",
    "stateCode": "WA",
    "name": "Bellingham",
    "name_jp": "Bellingham",
    "lat": 48.753442,
    "lon": -122.470179,
    "id": "US-WA-Bellingham",
    "ats": true,
    "removed": false,
    "source": "trucksimulator.wiki.gg (Cities/American_Truck_Simulator)"
  },
  {
    "region": "North America",
    "country": "USA",
    "country_jp": "アメリカ合衆国",
    "countryCode": "US",
    "state": "Oregon",
    "state_jp": "オレゴン州",
    "stateCode": "OR",
    "name": "Bend",
    "name_jp": "Bend",
    "lat": 44.056683,
    "lon": -121.307991,
    "id": "US-OR-Bend",
    "ats": true,
    "removed": false,
    "source": "trucksimulator.wiki.gg (Cities/American_Truck_Simulator)"
  },
  {
    "region": "North America",
    "country": "USA",
    "country_jp": "アメリカ合衆国",
    "countryCode": "US",
    "state": "California",
    "state_jp": "カリフォルニア州",
    "stateCode": "CA",
    "name": "Blythe",
    "name_jp": "Blythe",
    "lat": 33.65352,
    "lon": -114.621823,
    "id": "US-CA-Blythe",
    "ats": true,
    "removed": false,
    "source": "trucksimulator.wiki.gg (Cities/American_Truck_Simulator)"
  },
  {
    "region": "North America",
    "country": "USA",
    "country_jp": "アメリカ合衆国",
    "countryCode": "US",
    "state": "Montana",
    "state_jp": "モンタナ州",
    "stateCode": "MT",
    "name": "Bozeman",
    "name_jp": "Bozeman",
    "lat": 45.683155,
    "lon": -111.053782,
    "id": "US-MT-Bozeman",
    "ats": true,
    "removed": false,
    "source": "trucksimulator.wiki.gg (Cities/American_Truck_Simulator)"
  },
  {
    "region": "North America",
    "country": "USA",
    "country_jp": "アメリカ合衆国",
    "countryCode": "US",
    "state": "Texas",
    "state_jp": "テキサス州",
    "stateCode": "TX",
    "name": "Brownsville",
    "name_jp": "Brownsville",
    "lat": 25.989404,
    "lon": -97.480625,
    "id": "US-TX-Brownsville",
    "ats": true,
    "removed": false,
    "source": "trucksimulator.wiki.gg (Cities/American_Truck_Simulator)"
  },
  {
    "region": "North America",
    "country": "USA",
    "country_jp": "アメリカ合衆国",
    "countryCode": "US",
    "state": "Colorado",
    "state_jp": "コロラド州",
    "stateCode": "CO",
    "name": "Burlington",
    "name_jp": "Burlington",
    "lat": 39.304169,
    "lon": -102.271412,
    "id": "US-CO-Burlington",
    "ats": true,
    "removed": false,
    "source": "trucksimulator.wiki.gg (Cities/American_Truck_Simulator)"
  },
  {
    "region": "North America",
    "country": "USA",
    "country_jp": "アメリカ合衆国",
    "countryCode": "US",
    "state": "Iowa",
    "state_jp": "アイオワ州",
    "stateCode": "IA",
    "name": "Burlington",
    "name_jp": "Burlington",
    "lat": 40.807102,
    "lon": -91.123676,
    "id": "US-IA-Burlington",
    "ats": true,
    "removed": false,
    "source": "trucksimulator.wiki.gg (Cities/American_Truck_Simulator)"
  },
  {
    "region": "North America",
    "country": "USA",
    "country_jp": "アメリカ合衆国",
    "countryCode": "US",
    "state": "Oregon",
    "state_jp": "オレゴン州",
    "stateCode": "OR",
    "name": "Burns",
    "name_jp": "Burns",
    "lat": 43.588281,
    "lon": -119.06129,
    "id": "US-OR-Burns",
    "ats": true,
    "removed": false,
    "source": "trucksimulator.wiki.gg (Cities/American_Truck_Simulator)"
  },
  {
    "region": "North America",
    "country": "USA",
    "country_jp": "アメリカ合衆国",
    "countryCode": "US",
    "state": "Montana",
    "state_jp": "モンタナ州",
    "stateCode": "MT",
    "name": "Butte",
    "name_jp": "Butte",
    "lat": 45.896232,
    "lon": -112.660071,
    "id": "US-MT-Butte",
    "ats": true,
    "removed": false,
    "source": "trucksimulator.wiki.gg (Cities/American_Truck_Simulator)"
  },
  {
    "region": "North America",
    "country": "USA",
    "country_jp": "アメリカ合衆国",
    "countryCode": "US",
    "state": "Arizona",
    "state_jp": "アリゾナ州",
    "stateCode": "AZ",
    "name": "Camp Verde",
    "name_jp": "Camp Verde",
    "lat": 34.569405,
    "lon": -111.857014,
    "id": "US-AZ-CampVerde",
    "ats": true,
    "removed": false,
    "source": "trucksimulator.wiki.gg (Cities/American_Truck_Simulator)"
  },
  {
    "region": "North America",
    "country": "USA",
    "country_jp": "アメリカ合衆国",
    "countryCode": "US",
    "state": "Missouri",
    "state_jp": "ミズーリ州",
    "stateCode": "MO",
    "name": "Cape Girardeau",
    "name_jp": "Cape Girardeau",
    "lat": 37.309389,
    "lon": -89.558359,
    "id": "US-MO-CapeGirardeau",
    "ats": true,
    "removed": false,
    "source": "trucksimulator.wiki.gg (Cities/American_Truck_Simulator)"
  },
  {
    "region": "North America",
    "country": "USA",
    "country_jp": "アメリカ合衆国",
    "countryCode": "US",
    "state": "New Mexico",
    "state_jp": "ニューメキシコ州",
    "stateCode": "NM",
    "name": "Carlsbad",
    "name_jp": "Carlsbad",
    "lat": 32.40079,
    "lon": -104.241012,
    "id": "US-NM-Carlsbad",
    "ats": true,
    "removed": false,
    "source": "trucksimulator.wiki.gg (Cities/American_Truck_Simulator)"
  },
  {
    "region": "North America",
    "country": "USA",
    "country_jp": "アメリカ合衆国",
    "countryCode": "US",
    "state": "Nevada",
    "state_jp": "ネバダ州",
    "stateCode": "NV",
    "name": "Carson City",
    "name_jp": "Carson City",
    "lat": 39.15306,
    "lon": -119.747368,
    "id": "US-NV-CarsonCity",
    "ats": true,
    "removed": false,
    "source": "trucksimulator.wiki.gg (Cities/American_Truck_Simulator)"
  },
  {
    "region": "North America",
    "country": "USA",
    "country_jp": "アメリカ合衆国",
    "countryCode": "US",
    "state": "Utah",
    "state_jp": "ユタ州",
    "stateCode": "UT",
    "name": "Cedar City",
    "name_jp": "Cedar City",
    "lat": 37.683847,
    "lon": -113.095566,
    "id": "US-UT-CedarCity",
    "ats": true,
    "removed": false,
    "source": "trucksimulator.wiki.gg (Cities/American_Truck_Simulator)"
  },
  {
    "region": "North America",
    "country": "USA",
    "country_jp": "アメリカ合衆国",
    "countryCode": "US",
    "state": "Iowa",
    "state_jp": "アイオワ州",
    "stateCode": "IA",
    "name": "Cedar Rapids",
    "name_jp": "Cedar Rapids",
    "lat": 41.96419,
    "lon": -91.67917,
    "id": "US-IA-CedarRapids",
    "ats": true,
    "removed": false,
    "source": "trucksimulator.wiki.gg (Cities/American_Truck_Simulator)"
  },
  {
    "region": "North America",
    "country": "USA",
    "country_jp": "アメリカ合衆国",
    "countryCode": "US",
    "state": "Nebraska",
    "state_jp": "ネブラスカ州",
    "stateCode": "NE",
    "name": "Chadron",
    "name_jp": "Chadron",
    "lat": 42.825975,
    "lon": -103.002478,
    "id": "US-NE-Chadron",
    "ats": true,
    "removed": false,
    "source": "trucksimulator.wiki.gg (Cities/American_Truck_Simulator)"
  },
  {
    "region": "North America",
    "country": "USA",
    "country_jp": "アメリカ合衆国",
    "countryCode": "US",
    "state": "Arizona",
    "state_jp": "アリゾナ州",
    "stateCode": "AZ",
    "name": "Clifton",
    "name_jp": "Clifton",
    "lat": 33.02957,
    "lon": -109.284039,
    "id": "US-AZ-Clifton",
    "ats": true,
    "removed": false,
    "source": "trucksimulator.wiki.gg (Cities/American_Truck_Simulator)"
  },
  {
    "region": "North America",
    "country": "USA",
    "country_jp": "アメリカ合衆国",
    "countryCode": "US",
    "state": "Oklahoma",
    "state_jp": "オクラホマ州",
    "stateCode": "OK",
    "name": "Clinton",
    "name_jp": "Clinton",
    "lat": 35.507101,
    "lon": -98.970503,
    "id": "US-OK-Clinton",
    "ats": true,
    "removed": false,
    "source": "trucksimulator.wiki.gg (Cities/American_Truck_Simulator)"
  },
  {
    "region": "North America",
    "country": "USA",
    "country_jp": "アメリカ合衆国",
    "countryCode": "US",
    "state": "New Mexico",
    "state_jp": "ニューメキシコ州",
    "stateCode": "NM",
    "name": "Clovis",
    "name_jp": "Clovis",
    "lat": 34.438569,
    "lon": -103.194194,
    "id": "US-NM-Clovis",
    "ats": true,
    "removed": false,
    "source": "trucksimulator.wiki.gg (Cities/American_Truck_Simulator)"
  },
  {
    "region": "North America",
    "country": "USA",
    "country_jp": "アメリカ合衆国",
    "countryCode": "US",
    "state": "Wyoming",
    "state_jp": "ワイオミング州",
    "stateCode": "WY",
    "name": "Cody",
    "name_jp": "Cody",
    "lat": 44.521242,
    "lon": -109.057469,
    "id": "US-WY-Cody",
    "ats": true,
    "removed": false,
    "source": "trucksimulator.wiki.gg (Cities/American_Truck_Simulator)"
  },
  {
    "region": "North America",
    "country": "USA",
    "country_jp": "アメリカ合衆国",
    "countryCode": "US",
    "state": "Kansas",
    "state_jp": "カンザス州",
    "stateCode": "KS",
    "name": "Colby",
    "name_jp": "Colby",
    "lat": 39.384348,
    "lon": -101.04509,
    "id": "US-KS-Colby",
    "ats": true,
    "removed": false,
    "source": "trucksimulator.wiki.gg (Cities/American_Truck_Simulator)"
  },
  {
    "region": "North America",
    "country": "USA",
    "country_jp": "アメリカ合衆国",
    "countryCode": "US",
    "state": "Colorado",
    "state_jp": "コロラド州",
    "stateCode": "CO",
    "name": "Colorado Springs",
    "name_jp": "Springs",
    "lat": 38.867255,
    "lon": -104.760749,
    "id": "US-CO-Springs",
    "ats": true,
    "removed": false,
    "source": "trucksimulator.wiki.gg (Cities/American_Truck_Simulator)"
  },
  {
    "region": "North America",
    "country": "USA",
    "country_jp": "アメリカ合衆国",
    "countryCode": "US",
    "state": "Missouri",
    "state_jp": "ミズーリ州",
    "stateCode": "MO",
    "name": "Columbia",
    "name_jp": "Columbia",
    "lat": 38.94729,
    "lon": -92.326387,
    "id": "US-MO-Columbia",
    "ats": true,
    "removed": false,
    "source": "trucksimulator.wiki.gg (Cities/American_Truck_Simulator)"
  },
  {
    "region": "North America",
    "country": "USA",
    "country_jp": "アメリカ合衆国",
    "countryCode": "US",
    "state": "Nebraska",
    "state_jp": "ネブラスカ州",
    "stateCode": "NE",
    "name": "Columbus",
    "name_jp": "Columbus",
    "lat": 41.437087,
    "lon": -97.358615,
    "id": "US-NE-Columbus",
    "ats": true,
    "removed": false,
    "source": "trucksimulator.wiki.gg (Cities/American_Truck_Simulator)"
  },
  {
    "region": "North America",
    "country": "USA",
    "country_jp": "アメリカ合衆国",
    "countryCode": "US",
    "state": "Washington",
    "state_jp": "ワシントン州",
    "stateCode": "WA",
    "name": "Colville",
    "name_jp": "Colville",
    "lat": 48.545448,
    "lon": -117.898479,
    "id": "US-WA-Colville",
    "ats": true,
    "removed": false,
    "source": "trucksimulator.wiki.gg (Cities/American_Truck_Simulator)"
  },
  {
    "region": "North America",
    "country": "USA",
    "country_jp": "アメリカ合衆国",
    "countryCode": "US",
    "state": "Oregon",
    "state_jp": "オレゴン州",
    "stateCode": "OR",
    "name": "Coos Bay",
    "name_jp": "Coos Bay",
    "lat": 43.381126,
    "lon": -124.232597,
    "id": "US-OR-CoosBay",
    "ats": true,
    "removed": false,
    "source": "trucksimulator.wiki.gg (Cities/American_Truck_Simulator)"
  },
  {
    "region": "North America",
    "country": "USA",
    "country_jp": "アメリカ合衆国",
    "countryCode": "US",
    "state": "Iowa",
    "state_jp": "アイオワ州",
    "stateCode": "IA",
    "name": "Council Bluffs",
    "name_jp": "Council Bluffs",
    "lat": 41.236585,
    "lon": -95.852805,
    "id": "US-IA-CouncilBluffs",
    "ats": true,
    "removed": false,
    "source": "trucksimulator.wiki.gg (Cities/American_Truck_Simulator)"
  },
  {
    "region": "North America",
    "country": "USA",
    "country_jp": "アメリカ合衆国",
    "countryCode": "US",
    "state": "Texas",
    "state_jp": "テキサス州",
    "stateCode": "TX",
    "name": "Dalhart",
    "name_jp": "Dalhart",
    "lat": 36.057423,
    "lon": -102.512212,
    "id": "US-TX-Dalhart",
    "ats": true,
    "removed": false,
    "source": "trucksimulator.wiki.gg (Cities/American_Truck_Simulator)"
  },
  {
    "region": "North America",
    "country": "USA",
    "country_jp": "アメリカ合衆国",
    "countryCode": "US",
    "state": "Louisiana",
    "state_jp": "ルイジアナ州",
    "stateCode": "LA",
    "name": "DeRidder",
    "name_jp": "DeRidder",
    "lat": 30.845003,
    "lon": -93.2952,
    "id": "US-LA-DeRidder",
    "ats": true,
    "removed": false,
    "source": "trucksimulator.wiki.gg (Cities/American_Truck_Simulator)"
  },
  {
    "region": "North America",
    "country": "USA",
    "country_jp": "アメリカ合衆国",
    "countryCode": "US",
    "state": "Texas",
    "state_jp": "テキサス州",
    "stateCode": "TX",
    "name": "Del Rio",
    "name_jp": "Del Rio",
    "lat": 29.373045,
    "lon": -100.881851,
    "id": "US-TX-DelRio",
    "ats": true,
    "removed": false,
    "source": "trucksimulator.wiki.gg (Cities/American_Truck_Simulator)"
  },
  {
    "region": "North America",
    "country": "USA",
    "country_jp": "アメリカ合衆国",
    "countryCode": "US",
    "state": "Iowa",
    "state_jp": "アイオワ州",
    "stateCode": "IA",
    "name": "Dubuque",
    "name_jp": "Dubuque",
    "lat": 42.498901,
    "lon": -90.707258,
    "id": "US-IA-Dubuque",
    "ats": true,
    "removed": false,
    "source": "trucksimulator.wiki.gg (Cities/American_Truck_Simulator)"
  },
  {
    "region": "North America",
    "country": "USA",
    "country_jp": "アメリカ合衆国",
    "countryCode": "US",
    "state": "Colorado",
    "state_jp": "コロラド州",
    "stateCode": "CO",
    "name": "Durango",
    "name_jp": "Durango",
    "lat": 37.264534,
    "lon": -107.874124,
    "id": "US-CO-Durango",
    "ats": true,
    "removed": false,
    "source": "trucksimulator.wiki.gg (Cities/American_Truck_Simulator)"
  },
  {
    "region": "North America",
    "country": "USA",
    "country_jp": "アメリカ合衆国",
    "countryCode": "US",
    "state": "California",
    "state_jp": "カリフォルニア州",
    "stateCode": "CA",
    "name": "El Centro",
    "name_jp": "El Centro",
    "lat": 32.786351,
    "lon": -115.560206,
    "id": "US-CA-ElCentro",
    "ats": true,
    "removed": false,
    "source": "trucksimulator.wiki.gg (Cities/American_Truck_Simulator)"
  },
  {
    "region": "North America",
    "country": "USA",
    "country_jp": "アメリカ合衆国",
    "countryCode": "US",
    "state": "Arkansas",
    "state_jp": "アーカンソー州",
    "stateCode": "AR",
    "name": "El Dorado",
    "name_jp": "El Dorado",
    "lat": 33.218982,
    "lon": -92.664071,
    "id": "US-AR-ElDorado",
    "ats": true,
    "removed": false,
    "source": "trucksimulator.wiki.gg (Cities/American_Truck_Simulator)"
  },
  {
    "region": "North America",
    "country": "USA",
    "country_jp": "アメリカ合衆国",
    "countryCode": "US",
    "state": "Kansas",
    "state_jp": "カンザス州",
    "stateCode": "KS",
    "name": "Emporia",
    "name_jp": "Emporia",
    "lat": 38.40186,
    "lon": -96.191654,
    "id": "US-KS-Emporia",
    "ats": true,
    "removed": false,
    "source": "trucksimulator.wiki.gg (Cities/American_Truck_Simulator)"
  },
  {
    "region": "North America",
    "country": "USA",
    "country_jp": "アメリカ合衆国",
    "countryCode": "US",
    "state": "Oklahoma",
    "state_jp": "オクラホマ州",
    "stateCode": "OK",
    "name": "Enid",
    "name_jp": "Enid",
    "lat": 36.406702,
    "lon": -97.869861,
    "id": "US-OK-Enid",
    "ats": true,
    "removed": false,
    "source": "trucksimulator.wiki.gg (Cities/American_Truck_Simulator)"
  },
  {
    "region": "North America",
    "country": "USA",
    "country_jp": "アメリカ合衆国",
    "countryCode": "US",
    "state": "Wyoming",
    "state_jp": "ワイオミング州",
    "stateCode": "WY",
    "name": "Evanston",
    "name_jp": "Evanston",
    "lat": 41.260088,
    "lon": -110.963739,
    "id": "US-WY-Evanston",
    "ats": true,
    "removed": false,
    "source": "trucksimulator.wiki.gg (Cities/American_Truck_Simulator)"
  },
  {
    "region": "North America",
    "country": "USA",
    "country_jp": "アメリカ合衆国",
    "countryCode": "US",
    "state": "Colorado",
    "state_jp": "コロラド州",
    "stateCode": "CO",
    "name": "Fort Collins",
    "name_jp": "Fort Collins",
    "lat": 40.548216,
    "lon": -105.064833,
    "id": "US-CO-FortCollins",
    "ats": true,
    "removed": false,
    "source": "trucksimulator.wiki.gg (Cities/American_Truck_Simulator)"
  },
  {
    "region": "North America",
    "country": "USA",
    "country_jp": "アメリカ合衆国",
    "countryCode": "US",
    "state": "Iowa",
    "state_jp": "アイオワ州",
    "stateCode": "IA",
    "name": "Fort Dodge",
    "name_jp": "Fort Dodge",
    "lat": 42.509863,
    "lon": -94.175675,
    "id": "US-IA-FortDodge",
    "ats": true,
    "removed": false,
    "source": "trucksimulator.wiki.gg (Cities/American_Truck_Simulator)"
  },
  {
    "region": "North America",
    "country": "USA",
    "country_jp": "アメリカ合衆国",
    "countryCode": "US",
    "state": "Arkansas",
    "state_jp": "アーカンソー州",
    "stateCode": "AR",
    "name": "Fort Smith",
    "name_jp": "Fort Smith",
    "lat": 35.349276,
    "lon": -94.370883,
    "id": "US-AR-FortSmith",
    "ats": true,
    "removed": false,
    "source": "trucksimulator.wiki.gg (Cities/American_Truck_Simulator)"
  },
  {
    "region": "North America",
    "country": "USA",
    "country_jp": "アメリカ合衆国",
    "countryCode": "US",
    "state": "Texas",
    "state_jp": "テキサス州",
    "stateCode": "TX",
    "name": "Fort Stockton",
    "name_jp": "Fort Stockton",
    "lat": 30.892574,
    "lon": -102.88421,
    "id": "US-TX-FortStockton",
    "ats": true,
    "removed": false,
    "source": "trucksimulator.wiki.gg (Cities/American_Truck_Simulator)"
  },
  {
    "region": "North America",
    "country": "USA",
    "country_jp": "アメリカ合衆国",
    "countryCode": "US",
    "state": "New Mexico",
    "state_jp": "ニューメキシコ州",
    "stateCode": "NM",
    "name": "Gallup",
    "name_jp": "Gallup",
    "lat": 35.513753,
    "lon": -108.743733,
    "id": "US-NM-Gallup",
    "ats": true,
    "removed": false,
    "source": "trucksimulator.wiki.gg (Cities/American_Truck_Simulator)"
  },
  {
    "region": "North America",
    "country": "USA",
    "country_jp": "アメリカ合衆国",
    "countryCode": "US",
    "state": "Texas",
    "state_jp": "テキサス州",
    "stateCode": "TX",
    "name": "Galveston",
    "name_jp": "Galveston",
    "lat": 29.186328,
    "lon": -94.965758,
    "id": "US-TX-Galveston",
    "ats": true,
    "removed": false,
    "source": "trucksimulator.wiki.gg (Cities/American_Truck_Simulator)"
  },
  {
    "region": "North America",
    "country": "USA",
    "country_jp": "アメリカ合衆国",
    "countryCode": "US",
    "state": "Kansas",
    "state_jp": "カンザス州",
    "stateCode": "KS",
    "name": "Garden City",
    "name_jp": "Garden City",
    "lat": 37.975876,
    "lon": -100.850884,
    "id": "US-KS-GardenCity",
    "ats": true,
    "removed": false,
    "source": "trucksimulator.wiki.gg (Cities/American_Truck_Simulator)"
  },
  {
    "region": "North America",
    "country": "USA",
    "country_jp": "アメリカ合衆国",
    "countryCode": "US",
    "state": "Wyoming",
    "state_jp": "ワイオミング州",
    "stateCode": "WY",
    "name": "Gillette",
    "name_jp": "Gillette",
    "lat": 44.27258,
    "lon": -105.498936,
    "id": "US-WY-Gillette",
    "ats": true,
    "removed": false,
    "source": "trucksimulator.wiki.gg (Cities/American_Truck_Simulator)"
  },
  {
    "region": "North America",
    "country": "USA",
    "country_jp": "アメリカ合衆国",
    "countryCode": "US",
    "state": "Montana",
    "state_jp": "モンタナ州",
    "stateCode": "MT",
    "name": "Glasgow",
    "name_jp": "Glasgow",
    "lat": 48.199027,
    "lon": -106.632077,
    "id": "US-MT-Glasgow",
    "ats": true,
    "removed": false,
    "source": "trucksimulator.wiki.gg (Cities/American_Truck_Simulator)"
  },
  {
    "region": "North America",
    "country": "USA",
    "country_jp": "アメリカ合衆国",
    "countryCode": "US",
    "state": "Montana",
    "state_jp": "モンタナ州",
    "stateCode": "MT",
    "name": "Glendive",
    "name_jp": "Glendive",
    "lat": 47.106473,
    "lon": -104.710856,
    "id": "US-MT-Glendive",
    "ats": true,
    "removed": false,
    "source": "trucksimulator.wiki.gg (Cities/American_Truck_Simulator)"
  },
  {
    "region": "North America",
    "country": "USA",
    "country_jp": "アメリカ合衆国",
    "countryCode": "US",
    "state": "Arizona",
    "state_jp": "アリゾナ州",
    "stateCode": "AZ",
    "name": "Grand Canyon Village",
    "name_jp": "Grand Canyon Village",
    "lat": 36.059483,
    "lon": -112.157912,
    "id": "US-AZ-GrandCanyonVillage",
    "ats": true,
    "removed": false,
    "source": "trucksimulator.wiki.gg (Cities/American_Truck_Simulator)"
  },
  {
    "region": "North America",
    "country": "USA",
    "country_jp": "アメリカ合衆国",
    "countryCode": "US",
    "state": "Washington",
    "state_jp": "ワシントン州",
    "stateCode": "WA",
    "name": "Grand Coulee",
    "name_jp": "Grand Coulee",
    "lat": 47.939091,
    "lon": -119.002119,
    "id": "US-WA-GrandCoulee",
    "ats": true,
    "removed": false,
    "source": "trucksimulator.wiki.gg (Cities/American_Truck_Simulator)"
  },
  {
    "region": "North America",
    "country": "USA",
    "country_jp": "アメリカ合衆国",
    "countryCode": "US",
    "state": "Nebraska",
    "state_jp": "ネブラスカ州",
    "stateCode": "NE",
    "name": "Grand Island",
    "name_jp": "Grand Island",
    "lat": 40.921352,
    "lon": -98.358559,
    "id": "US-NE-GrandIsland",
    "ats": true,
    "removed": false,
    "source": "trucksimulator.wiki.gg (Cities/American_Truck_Simulator)"
  },
  {
    "region": "North America",
    "country": "USA",
    "country_jp": "アメリカ合衆国",
    "countryCode": "US",
    "state": "Idaho",
    "state_jp": "アイダホ州",
    "stateCode": "ID",
    "name": "Grangeville",
    "name_jp": "Grangeville",
    "lat": 45.925826,
    "lon": -116.121916,
    "id": "US-ID-Grangeville",
    "ats": true,
    "removed": false,
    "source": "trucksimulator.wiki.gg (Cities/American_Truck_Simulator)"
  },
  {
    "region": "North America",
    "country": "USA",
    "country_jp": "アメリカ合衆国",
    "countryCode": "US",
    "state": "Oklahoma",
    "state_jp": "オクラホマ州",
    "stateCode": "OK",
    "name": "Guymon",
    "name_jp": "Guymon",
    "lat": 36.690101,
    "lon": -101.477046,
    "id": "US-OK-Guymon",
    "ats": true,
    "removed": false,
    "source": "trucksimulator.wiki.gg (Cities/American_Truck_Simulator)"
  },
  {
    "region": "North America",
    "country": "USA",
    "country_jp": "アメリカ合衆国",
    "countryCode": "US",
    "state": "Arkansas",
    "state_jp": "アーカンソー州",
    "stateCode": "AR",
    "name": "Harrison",
    "name_jp": "Harrison",
    "lat": 36.242592,
    "lon": -93.11765,
    "id": "US-AR-Harrison",
    "ats": true,
    "removed": false,
    "source": "trucksimulator.wiki.gg (Cities/American_Truck_Simulator)"
  },
  {
    "region": "North America",
    "country": "USA",
    "country_jp": "アメリカ合衆国",
    "countryCode": "US",
    "state": "Montana",
    "state_jp": "モンタナ州",
    "stateCode": "MT",
    "name": "Havre",
    "name_jp": "Havre",
    "lat": 48.541911,
    "lon": -109.677956,
    "id": "US-MT-Havre",
    "ats": true,
    "removed": false,
    "source": "trucksimulator.wiki.gg (Cities/American_Truck_Simulator)"
  },
  {
    "region": "North America",
    "country": "USA",
    "country_jp": "アメリカ合衆国",
    "countryCode": "US",
    "state": "Kansas",
    "state_jp": "カンザス州",
    "stateCode": "KS",
    "name": "Hays",
    "name_jp": "Hays",
    "lat": 38.882156,
    "lon": -99.321975,
    "id": "US-KS-Hays",
    "ats": true,
    "removed": false,
    "source": "trucksimulator.wiki.gg (Cities/American_Truck_Simulator)"
  },
  {
    "region": "North America",
    "country": "USA",
    "country_jp": "アメリカ合衆国",
    "countryCode": "US",
    "state": "California",
    "state_jp": "カリフォルニア州",
    "stateCode": "CA",
    "name": "Hilt",
    "name_jp": "Hilt",
    "lat": 41.994859,
    "lon": -122.6233613,
    "id": "US-CA-Hilt",
    "ats": true,
    "removed": false,
    "source": "trucksimulator.wiki.gg (Cities/American_Truck_Simulator)"
  },
  {
    "region": "North America",
    "country": "USA",
    "country_jp": "アメリカ合衆国",
    "countryCode": "US",
    "state": "New Mexico",
    "state_jp": "ニューメキシコ州",
    "stateCode": "NM",
    "name": "Hobbs",
    "name_jp": "Hobbs",
    "lat": 32.729089,
    "lon": -103.160588,
    "id": "US-NM-Hobbs",
    "ats": true,
    "removed": false,
    "source": "trucksimulator.wiki.gg (Cities/American_Truck_Simulator)"
  },
  {
    "region": "North America",
    "country": "USA",
    "country_jp": "アメリカ合衆国",
    "countryCode": "US",
    "state": "Arizona",
    "state_jp": "アリゾナ州",
    "stateCode": "AZ",
    "name": "Holbrook",
    "name_jp": "Holbrook",
    "lat": 34.904624,
    "lon": -110.16721,
    "id": "US-AZ-Holbrook",
    "ats": true,
    "removed": false,
    "source": "trucksimulator.wiki.gg (Cities/American_Truck_Simulator)"
  },
  {
    "region": "North America",
    "country": "USA",
    "country_jp": "アメリカ合衆国",
    "countryCode": "US",
    "state": "Arkansas",
    "state_jp": "アーカンソー州",
    "stateCode": "AR",
    "name": "Hot Springs",
    "name_jp": "Hot Springs",
    "lat": 34.489442,
    "lon": -93.050254,
    "id": "US-AR-HotSprings",
    "ats": true,
    "removed": false,
    "source": "trucksimulator.wiki.gg (Cities/American_Truck_Simulator)"
  },
  {
    "region": "North America",
    "country": "USA",
    "country_jp": "アメリカ合衆国",
    "countryCode": "US",
    "state": "Louisiana",
    "state_jp": "ルイジアナ州",
    "stateCode": "LA",
    "name": "Houma",
    "name_jp": "Houma",
    "lat": 29.578681,
    "lon": -90.708023,
    "id": "US-LA-Houma",
    "ats": true,
    "removed": false,
    "source": "trucksimulator.wiki.gg (Cities/American_Truck_Simulator)"
  },
  {
    "region": "North America",
    "country": "USA",
    "country_jp": "アメリカ合衆国",
    "countryCode": "US",
    "state": "Texas",
    "state_jp": "テキサス州",
    "stateCode": "TX",
    "name": "Huntsville",
    "name_jp": "Huntsville",
    "lat": 30.700542,
    "lon": -95.55489,
    "id": "US-TX-Huntsville",
    "ats": true,
    "removed": false,
    "source": "trucksimulator.wiki.gg (Cities/American_Truck_Simulator)"
  },
  {
    "region": "North America",
    "country": "USA",
    "country_jp": "アメリカ合衆国",
    "countryCode": "US",
    "state": "California",
    "state_jp": "カリフォルニア州",
    "stateCode": "CA",
    "name": "Huron",
    "name_jp": "Huron",
    "lat": 36.204381,
    "lon": -120.095119,
    "id": "US-CA-Huron",
    "ats": true,
    "removed": false,
    "source": "trucksimulator.wiki.gg (Cities/American_Truck_Simulator)"
  },
  {
    "region": "North America",
    "country": "USA",
    "country_jp": "アメリカ合衆国",
    "countryCode": "US",
    "state": "Kansas",
    "state_jp": "カンザス州",
    "stateCode": "KS",
    "name": "Hutchinson",
    "name_jp": "Hutchinson",
    "lat": 38.064237,
    "lon": -97.908629,
    "id": "US-KS-Hutchinson",
    "ats": true,
    "removed": false,
    "source": "trucksimulator.wiki.gg (Cities/American_Truck_Simulator)"
  },
  {
    "region": "North America",
    "country": "USA",
    "country_jp": "アメリカ合衆国",
    "countryCode": "US",
    "state": "Oklahoma",
    "state_jp": "オクラホマ州",
    "stateCode": "OK",
    "name": "Idabel",
    "name_jp": "Idabel",
    "lat": 33.907406,
    "lon": -94.822174,
    "id": "US-OK-Idabel",
    "ats": true,
    "removed": false,
    "source": "trucksimulator.wiki.gg (Cities/American_Truck_Simulator)"
  },
  {
    "region": "North America",
    "country": "USA",
    "country_jp": "アメリカ合衆国",
    "countryCode": "US",
    "state": "Idaho",
    "state_jp": "アイダホ州",
    "stateCode": "ID",
    "name": "Idaho Falls",
    "name_jp": "Falls",
    "lat": 43.489616,
    "lon": -112.03534,
    "id": "US-ID-Falls",
    "ats": true,
    "removed": false,
    "source": "trucksimulator.wiki.gg (Cities/American_Truck_Simulator)"
  },
  {
    "region": "North America",
    "country": "USA",
    "country_jp": "アメリカ合衆国",
    "countryCode": "US",
    "state": "California",
    "state_jp": "カリフォルニア州",
    "stateCode": "CA",
    "name": "Indio",
    "name_jp": "Indio",
    "lat": 33.731639,
    "lon": -116.235971,
    "id": "US-CA-Indio",
    "ats": true,
    "removed": false,
    "source": "trucksimulator.wiki.gg (Cities/American_Truck_Simulator)"
  },
  {
    "region": "North America",
    "country": "USA",
    "country_jp": "アメリカ合衆国",
    "countryCode": "US",
    "state": "Iowa",
    "state_jp": "アイオワ州",
    "stateCode": "IA",
    "name": "Iowa City",
    "name_jp": "City",
    "lat": 41.655654,
    "lon": -91.530863,
    "id": "US-IA-City",
    "ats": true,
    "removed": false,
    "source": "trucksimulator.wiki.gg (Cities/American_Truck_Simulator)"
  },
  {
    "region": "North America",
    "country": "USA",
    "country_jp": "アメリカ合衆国",
    "countryCode": "US",
    "state": "Nevada",
    "state_jp": "ネバダ州",
    "stateCode": "NV",
    "name": "Jackpot",
    "name_jp": "Jackpot",
    "lat": 41.979455,
    "lon": -114.664598,
    "id": "US-NV-Jackpot",
    "ats": true,
    "removed": false,
    "source": "trucksimulator.wiki.gg (Cities/American_Truck_Simulator)"
  },
  {
    "region": "North America",
    "country": "USA",
    "country_jp": "アメリカ合衆国",
    "countryCode": "US",
    "state": "Wyoming",
    "state_jp": "ワイオミング州",
    "stateCode": "WY",
    "name": "Jackson",
    "name_jp": "Jackson",
    "lat": 43.471936,
    "lon": -110.775267,
    "id": "US-WY-Jackson",
    "ats": true,
    "removed": false,
    "source": "trucksimulator.wiki.gg (Cities/American_Truck_Simulator)"
  },
  {
    "region": "North America",
    "country": "USA",
    "country_jp": "アメリカ合衆国",
    "countryCode": "US",
    "state": "Missouri",
    "state_jp": "ミズーリ州",
    "stateCode": "MO",
    "name": "Jefferson City",
    "name_jp": "Jefferson City",
    "lat": 38.567461,
    "lon": -92.175254,
    "id": "US-MO-JeffersonCity",
    "ats": true,
    "removed": false,
    "source": "trucksimulator.wiki.gg (Cities/American_Truck_Simulator)"
  },
  {
    "region": "North America",
    "country": "USA",
    "country_jp": "アメリカ合衆国",
    "countryCode": "US",
    "state": "Arkansas",
    "state_jp": "アーカンソー州",
    "stateCode": "AR",
    "name": "Jonesboro",
    "name_jp": "Jonesboro",
    "lat": 35.819755,
    "lon": -90.679033,
    "id": "US-AR-Jonesboro",
    "ats": true,
    "removed": false,
    "source": "trucksimulator.wiki.gg (Cities/American_Truck_Simulator)"
  },
  {
    "region": "North America",
    "country": "USA",
    "country_jp": "アメリカ合衆国",
    "countryCode": "US",
    "state": "Missouri",
    "state_jp": "ミズーリ州",
    "stateCode": "MO",
    "name": "Joplin",
    "name_jp": "Joplin",
    "lat": 37.075218,
    "lon": -94.501259,
    "id": "US-MO-Joplin",
    "ats": true,
    "removed": false,
    "source": "trucksimulator.wiki.gg (Cities/American_Truck_Simulator)"
  },
  {
    "region": "North America",
    "country": "USA",
    "country_jp": "アメリカ合衆国",
    "countryCode": "US",
    "state": "Texas",
    "state_jp": "テキサス州",
    "stateCode": "TX",
    "name": "Junction",
    "name_jp": "Junction",
    "lat": 30.490759,
    "lon": -99.773222,
    "id": "US-TX-Junction",
    "ats": true,
    "removed": false,
    "source": "trucksimulator.wiki.gg (Cities/American_Truck_Simulator)"
  },
  {
    "region": "North America",
    "country": "USA",
    "country_jp": "アメリカ合衆国",
    "countryCode": "US",
    "state": "Kansas",
    "state_jp": "カンザス州",
    "stateCode": "KS",
    "name": "Junction City",
    "name_jp": "Junction City",
    "lat": 39.02722,
    "lon": -96.852271,
    "id": "US-KS-JunctionCity",
    "ats": true,
    "removed": false,
    "source": "trucksimulator.wiki.gg (Cities/American_Truck_Simulator)"
  },
  {
    "region": "North America",
    "country": "USA",
    "country_jp": "アメリカ合衆国",
    "countryCode": "US",
    "state": "Kansas",
    "state_jp": "カンザス州",
    "stateCode": "KS",
    "name": "Kansas City",
    "name_jp": "City",
    "lat": 39.122539,
    "lon": -94.741781,
    "id": "US-KS-City",
    "ats": true,
    "removed": false,
    "source": "trucksimulator.wiki.gg (Cities/American_Truck_Simulator)"
  },
  {
    "region": "North America",
    "country": "USA",
    "country_jp": "アメリカ合衆国",
    "countryCode": "US",
    "state": "Arizona",
    "state_jp": "アリゾナ州",
    "stateCode": "AZ",
    "name": "Kayenta",
    "name_jp": "Kayenta",
    "lat": 36.717167,
    "lon": -110.260458,
    "id": "US-AZ-Kayenta",
    "ats": true,
    "removed": false,
    "source": "trucksimulator.wiki.gg (Cities/American_Truck_Simulator)"
  },
  {
    "region": "North America",
    "country": "USA",
    "country_jp": "アメリカ合衆国",
    "countryCode": "US",
    "state": "Washington",
    "state_jp": "ワシントン州",
    "stateCode": "WA",
    "name": "Kennewick",
    "name_jp": "Kennewick",
    "lat": 46.197622,
    "lon": -119.175923,
    "id": "US-WA-Kennewick",
    "ats": true,
    "removed": false,
    "source": "trucksimulator.wiki.gg (Cities/American_Truck_Simulator)"
  },
  {
    "region": "North America",
    "country": "USA",
    "country_jp": "アメリカ合衆国",
    "countryCode": "US",
    "state": "Idaho",
    "state_jp": "アイダホ州",
    "stateCode": "ID",
    "name": "Ketchum",
    "name_jp": "Ketchum",
    "lat": 43.687221,
    "lon": -114.372475,
    "id": "US-ID-Ketchum",
    "ats": true,
    "removed": false,
    "source": "trucksimulator.wiki.gg (Cities/American_Truck_Simulator)"
  },
  {
    "region": "North America",
    "country": "USA",
    "country_jp": "アメリカ合衆国",
    "countryCode": "US",
    "state": "Missouri",
    "state_jp": "ミズーリ州",
    "stateCode": "MO",
    "name": "Kirksville",
    "name_jp": "Kirksville",
    "lat": 40.198171,
    "lon": -92.574562,
    "id": "US-MO-Kirksville",
    "ats": true,
    "removed": false,
    "source": "trucksimulator.wiki.gg (Cities/American_Truck_Simulator)"
  },
  {
    "region": "North America",
    "country": "USA",
    "country_jp": "アメリカ合衆国",
    "countryCode": "US",
    "state": "Oregon",
    "state_jp": "オレゴン州",
    "stateCode": "OR",
    "name": "Klamath Falls",
    "name_jp": "Klamath Falls",
    "lat": 42.218845,
    "lon": -121.778718,
    "id": "US-OR-KlamathFalls",
    "ats": true,
    "removed": false,
    "source": "trucksimulator.wiki.gg (Cities/American_Truck_Simulator)"
  },
  {
    "region": "North America",
    "country": "USA",
    "country_jp": "アメリカ合衆国",
    "countryCode": "US",
    "state": "Louisiana",
    "state_jp": "ルイジアナ州",
    "stateCode": "LA",
    "name": "Lafayette",
    "name_jp": "Lafayette",
    "lat": 30.2056,
    "lon": -92.028058,
    "id": "US-LA-Lafayette",
    "ats": true,
    "removed": false,
    "source": "trucksimulator.wiki.gg (Cities/American_Truck_Simulator)"
  },
  {
    "region": "North America",
    "country": "USA",
    "country_jp": "アメリカ合衆国",
    "countryCode": "US",
    "state": "Oregon",
    "state_jp": "オレゴン州",
    "stateCode": "OR",
    "name": "Lakeview",
    "name_jp": "Lakeview",
    "lat": 42.191438,
    "lon": -120.352536,
    "id": "US-OR-Lakeview",
    "ats": true,
    "removed": false,
    "source": "trucksimulator.wiki.gg (Cities/American_Truck_Simulator)"
  },
  {
    "region": "North America",
    "country": "USA",
    "country_jp": "アメリカ合衆国",
    "countryCode": "US",
    "state": "Colorado",
    "state_jp": "コロラド州",
    "stateCode": "CO",
    "name": "Lamar",
    "name_jp": "Lamar",
    "lat": 38.075971,
    "lon": -102.614723,
    "id": "US-CO-Lamar",
    "ats": true,
    "removed": false,
    "source": "trucksimulator.wiki.gg (Cities/American_Truck_Simulator)"
  },
  {
    "region": "North America",
    "country": "USA",
    "country_jp": "アメリカ合衆国",
    "countryCode": "US",
    "state": "Wyoming",
    "state_jp": "ワイオミング州",
    "stateCode": "WY",
    "name": "Laramie",
    "name_jp": "Laramie",
    "lat": 41.311544,
    "lon": -105.606884,
    "id": "US-WY-Laramie",
    "ats": true,
    "removed": false,
    "source": "trucksimulator.wiki.gg (Cities/American_Truck_Simulator)"
  },
  {
    "region": "North America",
    "country": "USA",
    "country_jp": "アメリカ合衆国",
    "countryCode": "US",
    "state": "Montana",
    "state_jp": "モンタナ州",
    "stateCode": "MT",
    "name": "Laurel",
    "name_jp": "Laurel",
    "lat": 45.674007,
    "lon": -108.776789,
    "id": "US-MT-Laurel",
    "ats": true,
    "removed": false,
    "source": "trucksimulator.wiki.gg (Cities/American_Truck_Simulator)"
  },
  {
    "region": "North America",
    "country": "USA",
    "country_jp": "アメリカ合衆国",
    "countryCode": "US",
    "state": "Idaho",
    "state_jp": "アイダホ州",
    "stateCode": "ID",
    "name": "Lewiston",
    "name_jp": "Lewiston",
    "lat": 46.39313,
    "lon": -116.993472,
    "id": "US-ID-Lewiston",
    "ats": true,
    "removed": false,
    "source": "trucksimulator.wiki.gg (Cities/American_Truck_Simulator)"
  },
  {
    "region": "North America",
    "country": "USA",
    "country_jp": "アメリカ合衆国",
    "countryCode": "US",
    "state": "Montana",
    "state_jp": "モンタナ州",
    "stateCode": "MT",
    "name": "Lewistown",
    "name_jp": "Lewistown",
    "lat": 47.05138,
    "lon": -109.452399,
    "id": "US-MT-Lewistown",
    "ats": true,
    "removed": false,
    "source": "trucksimulator.wiki.gg (Cities/American_Truck_Simulator)"
  },
  {
    "region": "North America",
    "country": "USA",
    "country_jp": "アメリカ合衆国",
    "countryCode": "US",
    "state": "Utah",
    "state_jp": "ユタ州",
    "stateCode": "UT",
    "name": "Logan",
    "name_jp": "Logan",
    "lat": 41.740256,
    "lon": -111.841764,
    "id": "US-UT-Logan",
    "ats": true,
    "removed": false,
    "source": "trucksimulator.wiki.gg (Cities/American_Truck_Simulator)"
  },
  {
    "region": "North America",
    "country": "USA",
    "country_jp": "アメリカ合衆国",
    "countryCode": "US",
    "state": "Texas",
    "state_jp": "テキサス州",
    "stateCode": "TX",
    "name": "Longview",
    "name_jp": "Longview",
    "lat": 32.520234,
    "lon": -94.761114,
    "id": "US-TX-Longview",
    "ats": true,
    "removed": false,
    "source": "trucksimulator.wiki.gg (Cities/American_Truck_Simulator)"
  },
  {
    "region": "North America",
    "country": "USA",
    "country_jp": "アメリカ合衆国",
    "countryCode": "US",
    "state": "Washington",
    "state_jp": "ワシントン州",
    "stateCode": "WA",
    "name": "Longview",
    "name_jp": "Longview",
    "lat": 46.145707,
    "lon": -122.964299,
    "id": "US-WA-Longview",
    "ats": true,
    "removed": false,
    "source": "trucksimulator.wiki.gg (Cities/American_Truck_Simulator)"
  },
  {
    "region": "North America",
    "country": "USA",
    "country_jp": "アメリカ合衆国",
    "countryCode": "US",
    "state": "Texas",
    "state_jp": "テキサス州",
    "stateCode": "TX",
    "name": "Lubbock",
    "name_jp": "Lubbock",
    "lat": 33.561901,
    "lon": -101.888883,
    "id": "US-TX-Lubbock",
    "ats": true,
    "removed": false,
    "source": "trucksimulator.wiki.gg (Cities/American_Truck_Simulator)"
  },
  {
    "region": "North America",
    "country": "USA",
    "country_jp": "アメリカ合衆国",
    "countryCode": "US",
    "state": "Texas",
    "state_jp": "テキサス州",
    "stateCode": "TX",
    "name": "Lufkin",
    "name_jp": "Lufkin",
    "lat": 31.322904,
    "lon": -94.729026,
    "id": "US-TX-Lufkin",
    "ats": true,
    "removed": false,
    "source": "trucksimulator.wiki.gg (Cities/American_Truck_Simulator)"
  },
  {
    "region": "North America",
    "country": "USA",
    "country_jp": "アメリカ合衆国",
    "countryCode": "US",
    "state": "Missouri",
    "state_jp": "ミズーリ州",
    "stateCode": "MO",
    "name": "Maryville",
    "name_jp": "Maryville",
    "lat": 40.342515,
    "lon": -94.870048,
    "id": "US-MO-Maryville",
    "ats": true,
    "removed": false,
    "source": "trucksimulator.wiki.gg (Cities/American_Truck_Simulator)"
  },
  {
    "region": "North America",
    "country": "USA",
    "country_jp": "アメリカ合衆国",
    "countryCode": "US",
    "state": "Iowa",
    "state_jp": "アイオワ州",
    "stateCode": "IA",
    "name": "Mason City",
    "name_jp": "Mason City",
    "lat": 43.147762,
    "lon": -93.200403,
    "id": "US-IA-MasonCity",
    "ats": true,
    "removed": false,
    "source": "trucksimulator.wiki.gg (Cities/American_Truck_Simulator)"
  },
  {
    "region": "North America",
    "country": "USA",
    "country_jp": "アメリカ合衆国",
    "countryCode": "US",
    "state": "Oklahoma",
    "state_jp": "オクラホマ州",
    "stateCode": "OK",
    "name": "McAlester",
    "name_jp": "McAlester",
    "lat": 34.926128,
    "lon": -95.773619,
    "id": "US-OK-McAlester",
    "ats": true,
    "removed": false,
    "source": "trucksimulator.wiki.gg (Cities/American_Truck_Simulator)"
  },
  {
    "region": "North America",
    "country": "USA",
    "country_jp": "アメリカ合衆国",
    "countryCode": "US",
    "state": "Texas",
    "state_jp": "テキサス州",
    "stateCode": "TX",
    "name": "McAllen",
    "name_jp": "McAllen",
    "lat": 26.224966,
    "lon": -98.246083,
    "id": "US-TX-McAllen",
    "ats": true,
    "removed": false,
    "source": "trucksimulator.wiki.gg (Cities/American_Truck_Simulator)"
  },
  {
    "region": "North America",
    "country": "USA",
    "country_jp": "アメリカ合衆国",
    "countryCode": "US",
    "state": "Nebraska",
    "state_jp": "ネブラスカ州",
    "stateCode": "NE",
    "name": "McCook",
    "name_jp": "McCook",
    "lat": 40.204896,
    "lon": -100.622118,
    "id": "US-NE-McCook",
    "ats": true,
    "removed": false,
    "source": "trucksimulator.wiki.gg (Cities/American_Truck_Simulator)"
  },
  {
    "region": "North America",
    "country": "USA",
    "country_jp": "アメリカ合衆国",
    "countryCode": "US",
    "state": "Montana",
    "state_jp": "モンタナ州",
    "stateCode": "MT",
    "name": "Miles City",
    "name_jp": "Miles City",
    "lat": 46.405823,
    "lon": -105.838944,
    "id": "US-MT-MilesCity",
    "ats": true,
    "removed": false,
    "source": "trucksimulator.wiki.gg (Cities/American_Truck_Simulator)"
  },
  {
    "region": "North America",
    "country": "USA",
    "country_jp": "アメリカ合衆国",
    "countryCode": "US",
    "state": "California",
    "state_jp": "カリフォルニア州",
    "stateCode": "CA",
    "name": "Modesto",
    "name_jp": "Modesto",
    "lat": 37.637533,
    "lon": -121.003049,
    "id": "US-CA-Modesto",
    "ats": true,
    "removed": false,
    "source": "trucksimulator.wiki.gg (Cities/American_Truck_Simulator)"
  },
  {
    "region": "North America",
    "country": "USA",
    "country_jp": "アメリカ合衆国",
    "countryCode": "US",
    "state": "California",
    "state_jp": "カリフォルニア州",
    "stateCode": "CA",
    "name": "Mojave",
    "name_jp": "Mojave",
    "lat": 35.014995,
    "lon": -118.190209,
    "id": "US-CA-Mojave",
    "ats": true,
    "removed": false,
    "source": "trucksimulator.wiki.gg (Cities/American_Truck_Simulator)"
  },
  {
    "region": "North America",
    "country": "USA",
    "country_jp": "アメリカ合衆国",
    "countryCode": "US",
    "state": "Louisiana",
    "state_jp": "ルイジアナ州",
    "stateCode": "LA",
    "name": "Monroe",
    "name_jp": "Monroe",
    "lat": 32.518986,
    "lon": -92.07718,
    "id": "US-LA-Monroe",
    "ats": true,
    "removed": false,
    "source": "trucksimulator.wiki.gg (Cities/American_Truck_Simulator)"
  },
  {
    "region": "North America",
    "country": "USA",
    "country_jp": "アメリカ合衆国",
    "countryCode": "US",
    "state": "Colorado",
    "state_jp": "コロラド州",
    "stateCode": "CO",
    "name": "Montrose",
    "name_jp": "Montrose",
    "lat": 38.468783,
    "lon": -107.858959,
    "id": "US-CO-Montrose",
    "ats": true,
    "removed": false,
    "source": "trucksimulator.wiki.gg (Cities/American_Truck_Simulator)"
  },
  {
    "region": "North America",
    "country": "USA",
    "country_jp": "アメリカ合衆国",
    "countryCode": "US",
    "state": "Idaho",
    "state_jp": "アイダホ州",
    "stateCode": "ID",
    "name": "Nampa",
    "name_jp": "Nampa",
    "lat": 43.586441,
    "lon": -116.56389,
    "id": "US-ID-Nampa",
    "ats": true,
    "removed": false,
    "source": "trucksimulator.wiki.gg (Cities/American_Truck_Simulator)"
  },
  {
    "region": "North America",
    "country": "USA",
    "country_jp": "アメリカ合衆国",
    "countryCode": "US",
    "state": "Louisiana",
    "state_jp": "ルイジアナ州",
    "stateCode": "LA",
    "name": "Natchitoches",
    "name_jp": "Natchitoches",
    "lat": 31.734775,
    "lon": -93.100942,
    "id": "US-LA-Natchitoches",
    "ats": true,
    "removed": false,
    "source": "trucksimulator.wiki.gg (Cities/American_Truck_Simulator)"
  },
  {
    "region": "North America",
    "country": "USA",
    "country_jp": "アメリカ合衆国",
    "countryCode": "US",
    "state": "Oregon",
    "state_jp": "オレゴン州",
    "stateCode": "OR",
    "name": "Newport",
    "name_jp": "Newport",
    "lat": 44.621411,
    "lon": -124.043824,
    "id": "US-OR-Newport",
    "ats": true,
    "removed": false,
    "source": "trucksimulator.wiki.gg (Cities/American_Truck_Simulator)"
  },
  {
    "region": "North America",
    "country": "USA",
    "country_jp": "アメリカ合衆国",
    "countryCode": "US",
    "state": "Arizona",
    "state_jp": "アリゾナ州",
    "stateCode": "AZ",
    "name": "Nogales",
    "name_jp": "Nogales",
    "lat": 31.361928,
    "lon": -110.93482,
    "id": "US-AZ-Nogales",
    "ats": true,
    "removed": false,
    "source": "trucksimulator.wiki.gg (Cities/American_Truck_Simulator)"
  },
  {
    "region": "North America",
    "country": "USA",
    "country_jp": "アメリカ合衆国",
    "countryCode": "US",
    "state": "Nebraska",
    "state_jp": "ネブラスカ州",
    "stateCode": "NE",
    "name": "Norfolk",
    "name_jp": "Norfolk",
    "lat": 42.028216,
    "lon": -97.427807,
    "id": "US-NE-Norfolk",
    "ats": true,
    "removed": false,
    "source": "trucksimulator.wiki.gg (Cities/American_Truck_Simulator)"
  },
  {
    "region": "North America",
    "country": "USA",
    "country_jp": "アメリカ合衆国",
    "countryCode": "US",
    "state": "Nebraska",
    "state_jp": "ネブラスカ州",
    "stateCode": "NE",
    "name": "North Platte",
    "name_jp": "North Platte",
    "lat": 41.12496,
    "lon": -100.750359,
    "id": "US-NE-NorthPlatte",
    "ats": true,
    "removed": false,
    "source": "trucksimulator.wiki.gg (Cities/American_Truck_Simulator)"
  },
  {
    "region": "North America",
    "country": "USA",
    "country_jp": "アメリカ合衆国",
    "countryCode": "US",
    "state": "California",
    "state_jp": "カリフォルニア州",
    "stateCode": "CA",
    "name": "Oakland",
    "name_jp": "Oakland",
    "lat": 37.769846,
    "lon": -122.22569,
    "id": "US-CA-Oakland",
    "ats": true,
    "removed": false,
    "source": "trucksimulator.wiki.gg (Cities/American_Truck_Simulator)"
  },
  {
    "region": "North America",
    "country": "USA",
    "country_jp": "アメリカ合衆国",
    "countryCode": "US",
    "state": "Texas",
    "state_jp": "テキサス州",
    "stateCode": "TX",
    "name": "Odessa",
    "name_jp": "Odessa",
    "lat": 31.880461,
    "lon": -102.345314,
    "id": "US-TX-Odessa",
    "ats": true,
    "removed": false,
    "source": "trucksimulator.wiki.gg (Cities/American_Truck_Simulator)"
  },
  {
    "region": "North America",
    "country": "USA",
    "country_jp": "アメリカ合衆国",
    "countryCode": "US",
    "state": "Oklahoma",
    "state_jp": "オクラホマ州",
    "stateCode": "OK",
    "name": "Oklahoma City",
    "name_jp": "City",
    "lat": 35.467079,
    "lon": -97.513657,
    "id": "US-OK-City",
    "ats": true,
    "removed": false,
    "source": "trucksimulator.wiki.gg (Cities/American_Truck_Simulator)"
  },
  {
    "region": "North America",
    "country": "USA",
    "country_jp": "アメリカ合衆国",
    "countryCode": "US",
    "state": "Washington",
    "state_jp": "ワシントン州",
    "stateCode": "WA",
    "name": "Olympia",
    "name_jp": "Olympia",
    "lat": 47.040604,
    "lon": -122.895,
    "id": "US-WA-Olympia",
    "ats": true,
    "removed": false,
    "source": "trucksimulator.wiki.gg (Cities/American_Truck_Simulator)"
  },
  {
    "region": "North America",
    "country": "USA",
    "country_jp": "アメリカ合衆国",
    "countryCode": "US",
    "state": "Washington",
    "state_jp": "ワシントン州",
    "stateCode": "WA",
    "name": "Omak",
    "name_jp": "Omak",
    "lat": 48.422338,
    "lon": -119.530623,
    "id": "US-WA-Omak",
    "ats": true,
    "removed": false,
    "source": "trucksimulator.wiki.gg (Cities/American_Truck_Simulator)"
  },
  {
    "region": "North America",
    "country": "USA",
    "country_jp": "アメリカ合衆国",
    "countryCode": "US",
    "state": "Oregon",
    "state_jp": "オレゴン州",
    "stateCode": "OR",
    "name": "Ontario",
    "name_jp": "Ontario",
    "lat": 44.025336,
    "lon": -116.977368,
    "id": "US-OR-Ontario",
    "ats": true,
    "removed": false,
    "source": "trucksimulator.wiki.gg (Cities/American_Truck_Simulator)"
  },
  {
    "region": "North America",
    "country": "USA",
    "country_jp": "アメリカ合衆国",
    "countryCode": "US",
    "state": "Iowa",
    "state_jp": "アイオワ州",
    "stateCode": "IA",
    "name": "Ottumwa",
    "name_jp": "Ottumwa",
    "lat": 41.022251,
    "lon": -92.423263,
    "id": "US-IA-Ottumwa",
    "ats": true,
    "removed": false,
    "source": "trucksimulator.wiki.gg (Cities/American_Truck_Simulator)"
  },
  {
    "region": "North America",
    "country": "USA",
    "country_jp": "アメリカ合衆国",
    "countryCode": "US",
    "state": "California",
    "state_jp": "カリフォルニア州",
    "stateCode": "CA",
    "name": "Oxnard",
    "name_jp": "Oxnard",
    "lat": 34.199436,
    "lon": -119.207515,
    "id": "US-CA-Oxnard",
    "ats": true,
    "removed": false,
    "source": "trucksimulator.wiki.gg (Cities/American_Truck_Simulator)"
  },
  {
    "region": "North America",
    "country": "USA",
    "country_jp": "アメリカ合衆国",
    "countryCode": "US",
    "state": "Arizona",
    "state_jp": "アリゾナ州",
    "stateCode": "AZ",
    "name": "Page",
    "name_jp": "Page",
    "lat": 36.941815,
    "lon": -111.513283,
    "id": "US-AZ-Page",
    "ats": true,
    "removed": false,
    "source": "trucksimulator.wiki.gg (Cities/American_Truck_Simulator)"
  },
  {
    "region": "North America",
    "country": "USA",
    "country_jp": "アメリカ合衆国",
    "countryCode": "US",
    "state": "Kansas",
    "state_jp": "カンザス州",
    "stateCode": "KS",
    "name": "Phillipsburg",
    "name_jp": "Phillipsburg",
    "lat": 39.751215,
    "lon": -99.320973,
    "id": "US-KS-Phillipsburg",
    "ats": true,
    "removed": false,
    "source": "trucksimulator.wiki.gg (Cities/American_Truck_Simulator)"
  },
  {
    "region": "North America",
    "country": "USA",
    "country_jp": "アメリカ合衆国",
    "countryCode": "US",
    "state": "Arkansas",
    "state_jp": "アーカンソー州",
    "stateCode": "AR",
    "name": "Pine Bluff",
    "name_jp": "Pine Bluff",
    "lat": 34.211591,
    "lon": -92.017555,
    "id": "US-AR-PineBluff",
    "ats": true,
    "removed": false,
    "source": "trucksimulator.wiki.gg (Cities/American_Truck_Simulator)"
  },
  {
    "region": "North America",
    "country": "USA",
    "country_jp": "アメリカ合衆国",
    "countryCode": "US",
    "state": "Nevada",
    "state_jp": "ネバダ州",
    "stateCode": "NV",
    "name": "Pioche",
    "name_jp": "Pioche",
    "lat": 37.951972,
    "lon": -114.443453,
    "id": "US-NV-Pioche",
    "ats": true,
    "removed": false,
    "source": "trucksimulator.wiki.gg (Cities/American_Truck_Simulator)"
  },
  {
    "region": "North America",
    "country": "USA",
    "country_jp": "アメリカ合衆国",
    "countryCode": "US",
    "state": "Kansas",
    "state_jp": "カンザス州",
    "stateCode": "KS",
    "name": "Pittsburg",
    "name_jp": "Pittsburg",
    "lat": 37.413564,
    "lon": -94.697998,
    "id": "US-KS-Pittsburg",
    "ats": true,
    "removed": false,
    "source": "trucksimulator.wiki.gg (Cities/American_Truck_Simulator)"
  },
  {
    "region": "North America",
    "country": "USA",
    "country_jp": "アメリカ合衆国",
    "countryCode": "US",
    "state": "Missouri",
    "state_jp": "ミズーリ州",
    "stateCode": "MO",
    "name": "Poplar Bluff",
    "name_jp": "Poplar Bluff",
    "lat": 36.763259,
    "lon": -90.413953,
    "id": "US-MO-PoplarBluff",
    "ats": true,
    "removed": false,
    "source": "trucksimulator.wiki.gg (Cities/American_Truck_Simulator)"
  },
  {
    "region": "North America",
    "country": "USA",
    "country_jp": "アメリカ合衆国",
    "countryCode": "US",
    "state": "Washington",
    "state_jp": "ワシントン州",
    "stateCode": "WA",
    "name": "Port Angeles",
    "name_jp": "Port Angeles",
    "lat": 48.119236,
    "lon": -123.448013,
    "id": "US-WA-PortAngeles",
    "ats": true,
    "removed": false,
    "source": "trucksimulator.wiki.gg (Cities/American_Truck_Simulator)"
  },
  {
    "region": "North America",
    "country": "USA",
    "country_jp": "アメリカ合衆国",
    "countryCode": "US",
    "state": "Louisiana",
    "state_jp": "ルイジアナ州",
    "stateCode": "LA",
    "name": "Port Fourchon",
    "name_jp": "Port Fourchon",
    "lat": 29.105786,
    "lon": -90.194522,
    "id": "US-LA-PortFourchon",
    "ats": true,
    "removed": false,
    "source": "trucksimulator.wiki.gg (Cities/American_Truck_Simulator)"
  },
  {
    "region": "North America",
    "country": "USA",
    "country_jp": "アメリカ合衆国",
    "countryCode": "US",
    "state": "Utah",
    "state_jp": "ユタ州",
    "stateCode": "UT",
    "name": "Price",
    "name_jp": "Price",
    "lat": 39.604001,
    "lon": -110.800352,
    "id": "US-UT-Price",
    "ats": true,
    "removed": false,
    "source": "trucksimulator.wiki.gg (Cities/American_Truck_Simulator)"
  },
  {
    "region": "North America",
    "country": "USA",
    "country_jp": "アメリカ合衆国",
    "countryCode": "US",
    "state": "Nevada",
    "state_jp": "ネバダ州",
    "stateCode": "NV",
    "name": "Primm",
    "name_jp": "Primm",
    "lat": 35.612395,
    "lon": -115.388052,
    "id": "US-NV-Primm",
    "ats": true,
    "removed": false,
    "source": "trucksimulator.wiki.gg (Cities/American_Truck_Simulator)"
  },
  {
    "region": "North America",
    "country": "USA",
    "country_jp": "アメリカ合衆国",
    "countryCode": "US",
    "state": "Colorado",
    "state_jp": "コロラド州",
    "stateCode": "CO",
    "name": "Rangely",
    "name_jp": "Rangely",
    "lat": 40.087011,
    "lon": -108.78326,
    "id": "US-CO-Rangely",
    "ats": true,
    "removed": false,
    "source": "trucksimulator.wiki.gg (Cities/American_Truck_Simulator)"
  },
  {
    "region": "North America",
    "country": "USA",
    "country_jp": "アメリカ合衆国",
    "countryCode": "US",
    "state": "New Mexico",
    "state_jp": "ニューメキシコ州",
    "stateCode": "NM",
    "name": "Raton",
    "name_jp": "Raton",
    "lat": 36.884967,
    "lon": -104.439572,
    "id": "US-NM-Raton",
    "ats": true,
    "removed": false,
    "source": "trucksimulator.wiki.gg (Cities/American_Truck_Simulator)"
  },
  {
    "region": "North America",
    "country": "USA",
    "country_jp": "アメリカ合衆国",
    "countryCode": "US",
    "state": "Wyoming",
    "state_jp": "ワイオミング州",
    "stateCode": "WY",
    "name": "Rawlins",
    "name_jp": "Rawlins",
    "lat": 41.78513,
    "lon": -107.224653,
    "id": "US-WY-Rawlins",
    "ats": true,
    "removed": false,
    "source": "trucksimulator.wiki.gg (Cities/American_Truck_Simulator)"
  },
  {
    "region": "North America",
    "country": "USA",
    "country_jp": "アメリカ合衆国",
    "countryCode": "US",
    "state": "Wyoming",
    "state_jp": "ワイオミング州",
    "stateCode": "WY",
    "name": "Riverton",
    "name_jp": "Riverton",
    "lat": 43.026256,
    "lon": -108.381303,
    "id": "US-WY-Riverton",
    "ats": true,
    "removed": false,
    "source": "trucksimulator.wiki.gg (Cities/American_Truck_Simulator)"
  },
  {
    "region": "North America",
    "country": "USA",
    "country_jp": "アメリカ合衆国",
    "countryCode": "US",
    "state": "Missouri",
    "state_jp": "ミズーリ州",
    "stateCode": "MO",
    "name": "Rolla",
    "name_jp": "Rolla",
    "lat": 37.94594,
    "lon": -91.761202,
    "id": "US-MO-Rolla",
    "ats": true,
    "removed": false,
    "source": "trucksimulator.wiki.gg (Cities/American_Truck_Simulator)"
  },
  {
    "region": "North America",
    "country": "USA",
    "country_jp": "アメリカ合衆国",
    "countryCode": "US",
    "state": "Kansas",
    "state_jp": "カンザス州",
    "stateCode": "KS",
    "name": "Salina",
    "name_jp": "Salina",
    "lat": 38.813085,
    "lon": -97.614477,
    "id": "US-KS-Salina",
    "ats": true,
    "removed": false,
    "source": "trucksimulator.wiki.gg (Cities/American_Truck_Simulator)"
  },
  {
    "region": "North America",
    "country": "USA",
    "country_jp": "アメリカ合衆国",
    "countryCode": "US",
    "state": "Utah",
    "state_jp": "ユタ州",
    "stateCode": "UT",
    "name": "Salina",
    "name_jp": "Salina",
    "lat": 38.938839,
    "lon": -111.865209,
    "id": "US-UT-Salina",
    "ats": true,
    "removed": false,
    "source": "trucksimulator.wiki.gg (Cities/American_Truck_Simulator)"
  },
  {
    "region": "North America",
    "country": "USA",
    "country_jp": "アメリカ合衆国",
    "countryCode": "US",
    "state": "Idaho",
    "state_jp": "アイダホ州",
    "stateCode": "ID",
    "name": "Salmon",
    "name_jp": "Salmon",
    "lat": 45.174386,
    "lon": -113.894764,
    "id": "US-ID-Salmon",
    "ats": true,
    "removed": false,
    "source": "trucksimulator.wiki.gg (Cities/American_Truck_Simulator)"
  },
  {
    "region": "North America",
    "country": "USA",
    "country_jp": "アメリカ合衆国",
    "countryCode": "US",
    "state": "Texas",
    "state_jp": "テキサス州",
    "stateCode": "TX",
    "name": "San Angelo",
    "name_jp": "San Angelo",
    "lat": 31.441078,
    "lon": -100.450499,
    "id": "US-TX-SanAngelo",
    "ats": true,
    "removed": false,
    "source": "trucksimulator.wiki.gg (Cities/American_Truck_Simulator)"
  },
  {
    "region": "North America",
    "country": "USA",
    "country_jp": "アメリカ合衆国",
    "countryCode": "US",
    "state": "California",
    "state_jp": "カリフォルニア州",
    "stateCode": "CA",
    "name": "San Jose",
    "name_jp": "San Jose",
    "lat": 37.296011,
    "lon": -121.814552,
    "id": "US-CA-SanJose",
    "ats": true,
    "removed": false,
    "source": "trucksimulator.wiki.gg (Cities/American_Truck_Simulator)"
  },
  {
    "region": "North America",
    "country": "USA",
    "country_jp": "アメリカ合衆国",
    "countryCode": "US",
    "state": "Arizona",
    "state_jp": "アリゾナ州",
    "stateCode": "AZ",
    "name": "San Simon",
    "name_jp": "San Simon",
    "lat": 32.268169,
    "lon": -109.2302,
    "id": "US-AZ-SanSimon",
    "ats": true,
    "removed": false,
    "source": "trucksimulator.wiki.gg (Cities/American_Truck_Simulator)"
  },
  {
    "region": "North America",
    "country": "USA",
    "country_jp": "アメリカ合衆国",
    "countryCode": "US",
    "state": "Idaho",
    "state_jp": "アイダホ州",
    "stateCode": "ID",
    "name": "Sandpoint",
    "name_jp": "Sandpoint",
    "lat": 48.281694,
    "lon": -116.560013,
    "id": "US-ID-Sandpoint",
    "ats": true,
    "removed": false,
    "source": "trucksimulator.wiki.gg (Cities/American_Truck_Simulator)"
  },
  {
    "region": "North America",
    "country": "USA",
    "country_jp": "アメリカ合衆国",
    "countryCode": "US",
    "state": "California",
    "state_jp": "カリフォルニア州",
    "stateCode": "CA",
    "name": "Santa Cruz",
    "name_jp": "Santa Cruz",
    "lat": 36.974385,
    "lon": -122.035268,
    "id": "US-CA-SantaCruz",
    "ats": true,
    "removed": false,
    "source": "trucksimulator.wiki.gg (Cities/American_Truck_Simulator)"
  },
  {
    "region": "North America",
    "country": "USA",
    "country_jp": "アメリカ合衆国",
    "countryCode": "US",
    "state": "California",
    "state_jp": "カリフォルニア州",
    "stateCode": "CA",
    "name": "Santa Maria",
    "name_jp": "Santa Maria",
    "lat": 34.933076,
    "lon": -120.443559,
    "id": "US-CA-SantaMaria",
    "ats": true,
    "removed": false,
    "source": "trucksimulator.wiki.gg (Cities/American_Truck_Simulator)"
  },
  {
    "region": "North America",
    "country": "USA",
    "country_jp": "アメリカ合衆国",
    "countryCode": "US",
    "state": "Arizona",
    "state_jp": "アリゾナ州",
    "stateCode": "AZ",
    "name": "Show Low",
    "name_jp": "Show Low",
    "lat": 34.265053,
    "lon": -110.038321,
    "id": "US-AZ-ShowLow",
    "ats": true,
    "removed": false,
    "source": "trucksimulator.wiki.gg (Cities/American_Truck_Simulator)"
  },
  {
    "region": "North America",
    "country": "USA",
    "country_jp": "アメリカ合衆国",
    "countryCode": "US",
    "state": "Louisiana",
    "state_jp": "ルイジアナ州",
    "stateCode": "LA",
    "name": "Shreveport",
    "name_jp": "Shreveport",
    "lat": 32.466879,
    "lon": -93.792193,
    "id": "US-LA-Shreveport",
    "ats": true,
    "removed": false,
    "source": "trucksimulator.wiki.gg (Cities/American_Truck_Simulator)"
  },
  {
    "region": "North America",
    "country": "USA",
    "country_jp": "アメリカ合衆国",
    "countryCode": "US",
    "state": "Montana",
    "state_jp": "モンタナ州",
    "stateCode": "MT",
    "name": "Sidney",
    "name_jp": "Sidney",
    "lat": 47.715456,
    "lon": -104.167161,
    "id": "US-MT-Sidney",
    "ats": true,
    "removed": false,
    "source": "trucksimulator.wiki.gg (Cities/American_Truck_Simulator)"
  },
  {
    "region": "North America",
    "country": "USA",
    "country_jp": "アメリカ合衆国",
    "countryCode": "US",
    "state": "Nebraska",
    "state_jp": "ネブラスカ州",
    "stateCode": "NE",
    "name": "Sidney",
    "name_jp": "Sidney",
    "lat": 41.133633,
    "lon": -102.96954,
    "id": "US-NE-Sidney",
    "ats": true,
    "removed": false,
    "source": "trucksimulator.wiki.gg (Cities/American_Truck_Simulator)"
  },
  {
    "region": "North America",
    "country": "USA",
    "country_jp": "アメリカ合衆国",
    "countryCode": "US",
    "state": "Arizona",
    "state_jp": "アリゾナ州",
    "stateCode": "AZ",
    "name": "Sierra Vista",
    "name_jp": "Sierra Vista",
    "lat": 31.56541,
    "lon": -110.314508,
    "id": "US-AZ-SierraVista",
    "ats": true,
    "removed": false,
    "source": "trucksimulator.wiki.gg (Cities/American_Truck_Simulator)"
  },
  {
    "region": "North America",
    "country": "USA",
    "country_jp": "アメリカ合衆国",
    "countryCode": "US",
    "state": "Iowa",
    "state_jp": "アイオワ州",
    "stateCode": "IA",
    "name": "Sioux City",
    "name_jp": "Sioux City",
    "lat": 42.49538,
    "lon": -96.389495,
    "id": "US-IA-SiouxCity",
    "ats": true,
    "removed": false,
    "source": "trucksimulator.wiki.gg (Cities/American_Truck_Simulator)"
  },
  {
    "region": "North America",
    "country": "USA",
    "country_jp": "アメリカ合衆国",
    "countryCode": "US",
    "state": "New Mexico",
    "state_jp": "ニューメキシコ州",
    "stateCode": "NM",
    "name": "Socorro",
    "name_jp": "Socorro",
    "lat": 34.054535,
    "lon": -106.906199,
    "id": "US-NM-Socorro",
    "ats": true,
    "removed": false,
    "source": "trucksimulator.wiki.gg (Cities/American_Truck_Simulator)"
  },
  {
    "region": "North America",
    "country": "USA",
    "country_jp": "アメリカ合衆国",
    "countryCode": "US",
    "state": "Arkansas",
    "state_jp": "アーカンソー州",
    "stateCode": "AR",
    "name": "Springdale",
    "name_jp": "Springdale",
    "lat": 36.191438,
    "lon": -94.155062,
    "id": "US-AR-Springdale",
    "ats": true,
    "removed": false,
    "source": "trucksimulator.wiki.gg (Cities/American_Truck_Simulator)"
  },
  {
    "region": "North America",
    "country": "USA",
    "country_jp": "アメリカ合衆国",
    "countryCode": "US",
    "state": "Missouri",
    "state_jp": "ミズーリ州",
    "stateCode": "MO",
    "name": "St. Joseph",
    "name_jp": "St. Joseph",
    "lat": 39.75946,
    "lon": -94.821143,
    "id": "US-MO-StJoseph",
    "ats": true,
    "removed": false,
    "source": "trucksimulator.wiki.gg (Cities/American_Truck_Simulator)"
  },
  {
    "region": "North America",
    "country": "USA",
    "country_jp": "アメリカ合衆国",
    "countryCode": "US",
    "state": "Colorado",
    "state_jp": "コロラド州",
    "stateCode": "CO",
    "name": "Sterling",
    "name_jp": "Sterling",
    "lat": 40.620487,
    "lon": -103.192582,
    "id": "US-CO-Sterling",
    "ats": true,
    "removed": false,
    "source": "trucksimulator.wiki.gg (Cities/American_Truck_Simulator)"
  },
  {
    "region": "North America",
    "country": "USA",
    "country_jp": "アメリカ合衆国",
    "countryCode": "US",
    "state": "California",
    "state_jp": "カリフォルニア州",
    "stateCode": "CA",
    "name": "Stockton",
    "name_jp": "Stockton",
    "lat": 37.976553,
    "lon": -121.308598,
    "id": "US-CA-Stockton",
    "ats": true,
    "removed": false,
    "source": "trucksimulator.wiki.gg (Cities/American_Truck_Simulator)"
  },
  {
    "region": "North America",
    "country": "USA",
    "country_jp": "アメリカ合衆国",
    "countryCode": "US",
    "state": "Arkansas",
    "state_jp": "アーカンソー州",
    "stateCode": "AR",
    "name": "Texarkana",
    "name_jp": "Texarkana",
    "lat": 33.436339,
    "lon": -93.987118,
    "id": "US-AR-Texarkana",
    "ats": true,
    "removed": false,
    "source": "trucksimulator.wiki.gg (Cities/American_Truck_Simulator)"
  },
  {
    "region": "North America",
    "country": "USA",
    "country_jp": "アメリカ合衆国",
    "countryCode": "US",
    "state": "Texas",
    "state_jp": "テキサス州",
    "stateCode": "TX",
    "name": "Texarkana",
    "name_jp": "Texarkana",
    "lat": 33.449204,
    "lon": -94.085008,
    "id": "US-TX-Texarkana",
    "ats": true,
    "removed": false,
    "source": "trucksimulator.wiki.gg (Cities/American_Truck_Simulator)"
  },
  {
    "region": "North America",
    "country": "USA",
    "country_jp": "アメリカ合衆国",
    "countryCode": "US",
    "state": "Oregon",
    "state_jp": "オレゴン州",
    "stateCode": "OR",
    "name": "The Dalles",
    "name_jp": "The Dalles",
    "lat": 45.598386,
    "lon": -121.152411,
    "id": "US-OR-TheDalles",
    "ats": true,
    "removed": false,
    "source": "trucksimulator.wiki.gg (Cities/American_Truck_Simulator)"
  },
  {
    "region": "North America",
    "country": "USA",
    "country_jp": "アメリカ合衆国",
    "countryCode": "US",
    "state": "Montana",
    "state_jp": "モンタナ州",
    "stateCode": "MT",
    "name": "Thompson Falls",
    "name_jp": "Thompson Falls",
    "lat": 47.599342,
    "lon": -115.342546,
    "id": "US-MT-ThompsonFalls",
    "ats": true,
    "removed": false,
    "source": "trucksimulator.wiki.gg (Cities/American_Truck_Simulator)"
  },
  {
    "region": "North America",
    "country": "USA",
    "country_jp": "アメリカ合衆国",
    "countryCode": "US",
    "state": "Nevada",
    "state_jp": "ネバダ州",
    "stateCode": "NV",
    "name": "Tonopah",
    "name_jp": "Tonopah",
    "lat": 38.08216,
    "lon": -117.224586,
    "id": "US-NV-Tonopah",
    "ats": true,
    "removed": false,
    "source": "trucksimulator.wiki.gg (Cities/American_Truck_Simulator)"
  },
  {
    "region": "North America",
    "country": "USA",
    "country_jp": "アメリカ合衆国",
    "countryCode": "US",
    "state": "California",
    "state_jp": "カリフォルニア州",
    "stateCode": "CA",
    "name": "Truckee",
    "name_jp": "Truckee",
    "lat": 39.350548,
    "lon": -120.193943,
    "id": "US-CA-Truckee",
    "ats": true,
    "removed": false,
    "source": "trucksimulator.wiki.gg (Cities/American_Truck_Simulator)"
  },
  {
    "region": "North America",
    "country": "USA",
    "country_jp": "アメリカ合衆国",
    "countryCode": "US",
    "state": "New Mexico",
    "state_jp": "ニューメキシコ州",
    "stateCode": "NM",
    "name": "Tucumcari",
    "name_jp": "Tucumcari",
    "lat": 35.170291,
    "lon": -103.705046,
    "id": "US-NM-Tucumcari",
    "ats": true,
    "removed": false,
    "source": "trucksimulator.wiki.gg (Cities/American_Truck_Simulator)"
  },
  {
    "region": "North America",
    "country": "USA",
    "country_jp": "アメリカ合衆国",
    "countryCode": "US",
    "state": "Texas",
    "state_jp": "テキサス州",
    "stateCode": "TX",
    "name": "Tyler",
    "name_jp": "Tyler",
    "lat": 32.317334,
    "lon": -95.306399,
    "id": "US-TX-Tyler",
    "ats": true,
    "removed": false,
    "source": "trucksimulator.wiki.gg (Cities/American_Truck_Simulator)"
  },
  {
    "region": "North America",
    "country": "USA",
    "country_jp": "アメリカ合衆国",
    "countryCode": "US",
    "state": "California",
    "state_jp": "カリフォルニア州",
    "stateCode": "CA",
    "name": "Ukiah",
    "name_jp": "Ukiah",
    "lat": 39.14647,
    "lon": -123.204438,
    "id": "US-CA-Ukiah",
    "ats": true,
    "removed": false,
    "source": "trucksimulator.wiki.gg (Cities/American_Truck_Simulator)"
  },
  {
    "region": "North America",
    "country": "USA",
    "country_jp": "アメリカ合衆国",
    "countryCode": "US",
    "state": "Nebraska",
    "state_jp": "ネブラスカ州",
    "stateCode": "NE",
    "name": "Valentine",
    "name_jp": "Valentine",
    "lat": 42.873892,
    "lon": -100.547014,
    "id": "US-NE-Valentine",
    "ats": true,
    "removed": false,
    "source": "trucksimulator.wiki.gg (Cities/American_Truck_Simulator)"
  },
  {
    "region": "North America",
    "country": "USA",
    "country_jp": "アメリカ合衆国",
    "countryCode": "US",
    "state": "Texas",
    "state_jp": "テキサス州",
    "stateCode": "TX",
    "name": "Van Horn",
    "name_jp": "Van Horn",
    "lat": 31.04067,
    "lon": -104.834156,
    "id": "US-TX-VanHorn",
    "ats": true,
    "removed": false,
    "source": "trucksimulator.wiki.gg (Cities/American_Truck_Simulator)"
  },
  {
    "region": "North America",
    "country": "USA",
    "country_jp": "アメリカ合衆国",
    "countryCode": "US",
    "state": "Washington",
    "state_jp": "ワシントン州",
    "stateCode": "WA",
    "name": "Vancouver",
    "name_jp": "Vancouver",
    "lat": 45.637156,
    "lon": -122.596567,
    "id": "US-WA-Vancouver",
    "ats": true,
    "removed": false,
    "source": "trucksimulator.wiki.gg (Cities/American_Truck_Simulator)"
  },
  {
    "region": "North America",
    "country": "USA",
    "country_jp": "アメリカ合衆国",
    "countryCode": "US",
    "state": "Utah",
    "state_jp": "ユタ州",
    "stateCode": "UT",
    "name": "Vernal",
    "name_jp": "Vernal",
    "lat": 40.45167,
    "lon": -109.538083,
    "id": "US-UT-Vernal",
    "ats": true,
    "removed": false,
    "source": "trucksimulator.wiki.gg (Cities/American_Truck_Simulator)"
  },
  {
    "region": "North America",
    "country": "USA",
    "country_jp": "アメリカ合衆国",
    "countryCode": "US",
    "state": "Texas",
    "state_jp": "テキサス州",
    "stateCode": "TX",
    "name": "Victoria",
    "name_jp": "Victoria",
    "lat": 28.828528,
    "lon": -96.986015,
    "id": "US-TX-Victoria",
    "ats": true,
    "removed": false,
    "source": "trucksimulator.wiki.gg (Cities/American_Truck_Simulator)"
  },
  {
    "region": "North America",
    "country": "USA",
    "country_jp": "アメリカ合衆国",
    "countryCode": "US",
    "state": "Texas",
    "state_jp": "テキサス州",
    "stateCode": "TX",
    "name": "Waco",
    "name_jp": "Waco",
    "lat": 31.557994,
    "lon": -97.18975,
    "id": "US-TX-Waco",
    "ats": true,
    "removed": false,
    "source": "trucksimulator.wiki.gg (Cities/American_Truck_Simulator)"
  },
  {
    "region": "North America",
    "country": "USA",
    "country_jp": "アメリカ合衆国",
    "countryCode": "US",
    "state": "Iowa",
    "state_jp": "アイオワ州",
    "stateCode": "IA",
    "name": "Waterloo",
    "name_jp": "Waterloo",
    "lat": 42.492327,
    "lon": -92.351947,
    "id": "US-IA-Waterloo",
    "ats": true,
    "removed": false,
    "source": "trucksimulator.wiki.gg (Cities/American_Truck_Simulator)"
  },
  {
    "region": "North America",
    "country": "USA",
    "country_jp": "アメリカ合衆国",
    "countryCode": "US",
    "state": "Washington",
    "state_jp": "ワシントン州",
    "stateCode": "WA",
    "name": "Wenatchee",
    "name_jp": "Wenatchee",
    "lat": 47.435985,
    "lon": -120.329266,
    "id": "US-WA-Wenatchee",
    "ats": true,
    "removed": false,
    "source": "trucksimulator.wiki.gg (Cities/American_Truck_Simulator)"
  },
  {
    "region": "North America",
    "country": "USA",
    "country_jp": "アメリカ合衆国",
    "countryCode": "US",
    "state": "Texas",
    "state_jp": "テキサス州",
    "stateCode": "TX",
    "name": "Wichita Falls",
    "name_jp": "Wichita Falls",
    "lat": 33.906654,
    "lon": -98.525848,
    "id": "US-TX-WichitaFalls",
    "ats": true,
    "removed": false,
    "source": "trucksimulator.wiki.gg (Cities/American_Truck_Simulator)"
  },
  {
    "region": "North America",
    "country": "USA",
    "country_jp": "アメリカ合衆国",
    "countryCode": "US",
    "state": "Oklahoma",
    "state_jp": "オクラホマ州",
    "stateCode": "OK",
    "name": "Woodward",
    "name_jp": "Woodward",
    "lat": 36.424832,
    "lon": -99.404726,
    "id": "US-OK-Woodward",
    "ats": true,
    "removed": false,
    "source": "trucksimulator.wiki.gg (Cities/American_Truck_Simulator)"
  },
  {
    "region": "North America",
    "country": "USA",
    "country_jp": "アメリカ合衆国",
    "countryCode": "US",
    "state": "Arizona",
    "state_jp": "アリゾナ州",
    "stateCode": "AZ",
    "name": "Ehrenberg",
    "name_jp": "Ehrenberg",
    "lat": 33.614208,
    "lon": -114.483007,
    "id": "US-AZ-Ehrenberg",
    "ats": true,
    "removed": true,
    "source": "trucksimulator.wiki.gg (Cities/American_Truck_Simulator)"
  },
  {
    "region": "North America",
    "country": "USA",
    "country_jp": "アメリカ合衆国",
    "countryCode": "US",
    "state": "California",
    "state_jp": "カリフォルニア州",
    "stateCode": "CA",
    "name": "Hornbrook",
    "name_jp": "Hornbrook",
    "lat": 41.904505,
    "lon": -122.558319,
    "id": "US-CA-Hornbrook",
    "ats": true,
    "removed": true,
    "source": "trucksimulator.wiki.gg (Cities/American_Truck_Simulator)"
  },
  {
    "region": "North America",
    "country": "USA",
    "country_jp": "アメリカ合衆国",
    "countryCode": "US",
    "state": "California",
    "state_jp": "カリフォルニア州",
    "stateCode": "CA",
    "name": "Oakdale",
    "name_jp": "Oakdale",
    "lat": 37.761666,
    "lon": -120.846434,
    "id": "US-CA-Oakdale",
    "ats": true,
    "removed": true,
    "source": "trucksimulator.wiki.gg (Cities/American_Truck_Simulator)"
  },
  {
    "region": "North America",
    "country": "USA",
    "country_jp": "アメリカ合衆国",
    "countryCode": "US",
    "state": "California",
    "state_jp": "カリフォルニア州",
    "stateCode": "CA",
    "name": "San Rafael",
    "name_jp": "San Rafael",
    "lat": 37.981003,
    "lon": -122.50693,
    "id": "US-CA-SanRafael",
    "ats": true,
    "removed": true,
    "source": "trucksimulator.wiki.gg (Cities/American_Truck_Simulator)"
  },
  {
    "region": "North America",
    "country": "USA",
    "country_jp": "アメリカ合衆国",
    "countryCode": "US",
    "state": "Kansas",
    "state_jp": "カンザス州",
    "stateCode": "KS",
    "name": "Marion",
    "name_jp": "Marion",
    "lat": 38.353315,
    "lon": -97.007777,
    "id": "US-KS-Marion",
    "ats": true,
    "removed": false,
    "source": "trucksimulator.wiki.gg (Cities/American_Truck_Simulator)"
  },
  {
    "region": "North America",
    "country": "USA",
    "country_jp": "アメリカ合衆国",
    "countryCode": "US",
    "state": "Kansas",
    "state_jp": "カンザス州",
    "stateCode": "KS",
    "name": "Marysville",
    "name_jp": "Marysville",
    "lat": 39.84369,
    "lon": -96.638878,
    "id": "US-KS-Marysville",
    "ats": true,
    "removed": false,
    "source": "trucksimulator.wiki.gg (Cities/American_Truck_Simulator)"
  }
]
