[
  {
    "region": "Europe",
    "country": "UK",
    "country_jp": "イギリス",
    "countryCode": "GB",
    "name": "London",
    "name_jp": "ロンドン",
    "lat": 51.5074,
    "lon": -0.1278
  },
  {
    "region": "Europe",
    "country": "UK",
    "country_jp": "イギリス",
    "countryCode": "GB",
    "name": "Manchester",
    "name_jp": "マンチェスター",
    "lat": 53.4808,
    "lon": -2.2426
  },
  {
    "region": "Europe",
    "country": "UK",
    "country_jp": "イギリス",
    "countryCode": "GB",
    "name": "Birmingham",
    "name_jp": "バーミンガム",
    "lat": 52.4862,
    "lon": -1.8904
  },
  {
    "region": "Europe",
    "country": "France",
    "country_jp": "フランス",
    "countryCode": "FR",
    "name": "Paris",
    "name_jp": "パリ",
    "lat": 48.8566,
    "lon": 2.3522
  },
  {
    "region": "Europe",
    "country": "France",
    "country_jp": "フランス",
    "countryCode": "FR",
    "name": "Lyon",
    "name_jp": "リヨン",
    "lat": 45.764,
    "lon": 4.8357
  },
  {
    "region": "Europe",
    "country": "Germany",
    "country_jp": "ドイツ",
    "countryCode": "DE",
    "name": "Berlin",
    "name_jp": "ベルリン",
    "lat": 52.52,
    "lon": 13.405
  },
  {
    "region": "Europe",
    "country": "Germany",
    "country_jp": "ドイツ",
    "countryCode": "DE",
    "name": "Hamburg",
    "name_jp": "ハンブルク",
    "lat": 53.5511,
    "lon": 9.9937
  },
  {
    "region": "Europe",
    "country": "Germany",
    "country_jp": "ドイツ",
    "countryCode": "DE",
    "name": "Munich",
    "name_jp": "ミュンヘン",
    "lat": 48.1351,
    "lon": 11.582
  },
  {
    "region": "Europe",
    "country": "Italy",
    "country_jp": "イタリア",
    "countryCode": "IT",
    "name": "Rome",
    "name_jp": "ローマ",
    "lat": 41.9028,
    "lon": 12.4964
  },
  {
    "region": "Europe",
    "country": "Italy",
    "country_jp": "イタリア",
    "countryCode": "IT",
    "name": "Milan",
    "name_jp": "ミラノ",
    "lat": 45.4642,
    "lon": 9.19
  },
  {
    "region": "Europe",
    "country": "Spain",
    "country_jp": "スペイン",
    "countryCode": "ES",
    "name": "Madrid",
    "name_jp": "マドリード",
    "lat": 40.4168,
    "lon": -3.7038
  },
  {
    "region": "Europe",
    "country": "Spain",
    "country_jp": "スペイン",
    "countryCode": "ES",
    "name": "Barcelona",
    "name_jp": "バルセロナ",
    "lat": 41.3874,
    "lon": 2.1686
  },
  {
    "region": "North America",
    "country": "USA",
    "country_jp": "アメリカ合衆国",
    "countryCode": "US",
    "name": "Los Angeles",
    "name_jp": "ロサンゼルス",
    "lat": 34.0522,
    "lon": -118.2437
  },
  {
    "region": "North America",
    "country": "USA",
    "country_jp": "アメリカ合衆国",
    "countryCode": "US",
    "name": "San Francisco",
    "name_jp": "サンフランシスコ",
    "lat": 37.7749,
    "lon": -122.4194
  },
  {
    "region": "North America",
    "country": "USA",
    "country_jp": "アメリカ合衆国",
    "countryCode": "US",
    "name": "Las Vegas",
    "name_jp": "ラスベガス",
    "lat": 36.1699,
    "lon": -115.1398
  },
  {
    "region": "North America",
    "country": "USA",
    "country_jp": "アメリカ合衆国",
    "countryCode": "US",
    "name": "Phoenix",
    "name_jp": "フェニックス",
    "lat": 33.4484,
    "lon": -112.074
  },
  {
    "region": "North America",
    "country": "USA",
    "country_jp": "アメリカ合衆国",
    "countryCode": "US",
    "name": "Denver",
    "name_jp": "デンバー",
    "lat": 39.7392,
    "lon": -104.9903
  },
  {
    "region": "North America",
    "country": "USA",
    "country_jp": "アメリカ合衆国",
    "countryCode": "US",
    "name": "Dallas",
    "name_jp": "ダラス",
    "lat": 32.7767,
    "lon": -96.797
  },
  {
    "region": "North America",
    "country": "USA",
    "country_jp": "アメリカ合衆国",
    "countryCode": "US",
    "name": "Houston",
    "name_jp": "ヒューストン",
    "lat": 29.7604,
    "lon": -95.3698
  },
  {
    "region": "North America",
    "country": "USA",
    "country_jp": "アメリカ合衆国",
    "countryCode": "US",
    "name": "Chicago",
    "name_jp": "シカゴ",
    "lat": 41.8781,
    "lon": -87.6298
  },
  {
    "region": "North America",
    "country": "USA",
    "country_jp": "アメリカ合衆国",
    "countryCode": "US",
    "name": "Seattle",
    "name_jp": "シアトル",
    "lat": 47.6062,
    "lon": -122.3321
  }
]